adcode,address,city,id,lat,lng,name,shape
340504,东湖路与军民路交叉口东南100米,马鞍山市,B0FFF2RWWN,31.659162,118.529587,万嘉南苑一村,"118.530229,31.660817_118.529279,31.660787_118.529263,31.660258_118.528595,31.660265_118.528587,31.660196_118.528614,31.659379_118.52907,31.658276_118.529175,31.658299_118.529242,31.658141_118.529215,31.657952_118.529448,31.657443_118.529475,31.657447_118.529547,31.657338_118.529614,31.657335_118.52962,31.657118_118.530403,31.657084_118.530384,31.657356_118.530011,31.657363_118.530017,31.658342_118.530392,31.658543_118.530229,31.660817"
340504,万嘉南苑小区(军民路东110米),马鞍山市,B022B0MMNH,31.661794,118.529341,万嘉南苑二村,"118.528349,31.662602_118.529037,31.662606_118.529809,31.662598_118.530453,31.662599_118.530456,31.662187_118.53045,31.661543_118.530445,31.660992_118.529291,31.660985_118.528283,31.660988_118.528217,31.661039_118.528239,31.661919_118.528236,31.662584_118.528349,31.662602"
340503,蓬莱路附近,马鞍山市,B022B00NMW,31.69881,118.530914,万嘉颐园北区,"118.532063,31.700359_118.532042,31.699402_118.532262,31.699392_118.532276,31.698516_118.532477,31.698521_118.532461,31.698258_118.532501,31.697122_118.532371,31.697016_118.531581,31.697019_118.531562,31.697104_118.531769,31.697523_118.531686,31.697581_118.530827,31.69759_118.530779,31.697578_118.530687,31.697311_118.530636,31.697311_118.530629,31.697035_118.530196,31.697064_118.530184,31.697128_118.530015,31.697132_118.530028,31.697357_118.530096,31.697365_118.530059,31.697549_118.529997,31.69804_118.529934,31.698213_118.52982,31.69837_118.529649,31.698332_118.529203,31.698326_118.529091,31.699261_118.529083,31.699424_118.529608,31.699436_118.529635,31.699596_118.529555,31.699897_118.529418,31.700189_118.529418,31.700343_118.532063,31.700359"
340503,慈湖河路西200米,马鞍山市,B022B00O6E,31.694528,118.531017,万嘉颐园南区,"118.532415,31.696768_118.532547,31.696686_118.532562,31.696591_118.532553,31.696394_118.532557,31.693076_118.53245,31.692784_118.532316,31.692684_118.530396,31.692126_118.530106,31.692049_118.530059,31.692164_118.529851,31.692746_118.529868,31.692963_118.529379,31.692955_118.529355,31.694253_118.529355,31.69602_118.530412,31.696052_118.53026,31.696711_118.530302,31.696796_118.532415,31.696768"
340504,太白大道3200号,马鞍山市,B0FFFQ11V5,31.65822,118.506241,万达广场(马鞍山店),"118.507686,31.655646_118.507663,31.655632_118.507632,31.655623_118.50493,31.655664_118.504889,31.655672_118.504858,31.655682_118.504828,31.655699_118.504809,31.655714_118.50479,31.655739_118.50478,31.655774_118.504742,31.657337_118.504798,31.660684_118.504805,31.660715_118.504818,31.660748_118.504845,31.660775_118.504869,31.660793_118.504906,31.660806_118.504942,31.660814_118.507583,31.660804_118.507619,31.660794_118.507649,31.660778_118.507673,31.660756_118.507693,31.660735_118.507707,31.660704_118.507714,31.655706_118.507706,31.655674_118.507686,31.655646"
340503,霍里山大道附近,马鞍山市,B0FFGDPC8U,31.706368,118.546812,上湖家园,"118.544959,31.707026_118.5481,31.707507_118.548741,31.706257_118.547749,31.705579_118.547212,31.70541_118.547067,31.705424_118.545651,31.705077_118.544959,31.707026"
340521,提署路与振兴路交汇处(县体育馆以南100米),马鞍山市,B0FFFP2IMD,31.555348,118.499354,世代华府,"118.498571,31.556364_118.499878,31.556356_118.499866,31.555766_118.50024,31.555755_118.500338,31.555753_118.500356,31.555185_118.500371,31.554646_118.500368,31.554581_118.500338,31.554526_118.500306,31.554492_118.500249,31.554473_118.500175,31.55446_118.499475,31.554458_118.498567,31.554479_118.498493,31.554502_118.498451,31.554525_118.498433,31.554551_118.498469,31.555302_118.498496,31.555941_118.498524,31.556348_118.498571,31.556364"
340521,梅塘路,马鞍山市,B0FFG0D3U4,31.565106,118.508521,东一城,"118.506889,31.565516_118.507053,31.565511_118.50717,31.564366_118.507286,31.564291_118.507401,31.564268_118.507511,31.564253_118.507621,31.564243_118.507844,31.564252_118.508273,31.564322_118.508396,31.564336_118.508402,31.564381_118.509759,31.564414_118.509762,31.564561_118.510046,31.564547_118.510097,31.565678_118.509968,31.565806_118.509885,31.565831_118.506875,31.565822_118.506889,31.565516"
340503,雨山路与江东大道交汇处,马鞍山市,B022B0M8B0,31.669797,118.528597,东南名苑,"118.527474,31.670742_118.52738,31.670607_118.52738,31.668728_118.527439,31.668651_118.527724,31.668705_118.529869,31.669057_118.529896,31.669194_118.529912,31.670678_118.529816,31.670751_118.527474,31.670742"
340521,提署中路301号,马鞍山市,B022B00HSU,31.553207,118.495761,东城水岸,"118.495301,31.552158_118.496055,31.55219_118.496202,31.5526_118.496275,31.552862_118.496284,31.553174_118.496288,31.553441_118.496135,31.553502_118.496036,31.553589_118.49595,31.553676_118.495931,31.553749_118.495921,31.553884_118.495918,31.553976_118.495971,31.554131_118.496001,31.554218_118.496028,31.55441_118.495363,31.554424_118.495406,31.553772_118.495411,31.553226_118.495443,31.552586_118.495253,31.552579_118.495301,31.552158"
340503,亲水路与湖南东路交叉口北150米,马鞍山市,B022B00MQ6,31.685625,118.537859,东城花园一村,"118.5372,31.686655_118.536768,31.686587_118.537213,31.685046_118.537817,31.685137_118.537897,31.685056_118.537938,31.685013_118.539464,31.685013_118.539432,31.685236_118.539369,31.6853_118.539152,31.685397_118.53898,31.685514_118.538823,31.685628_118.538392,31.685802_118.538206,31.685882_118.537825,31.68606_118.537544,31.686279_118.537275,31.686575_118.5372,31.686655"
340503,霍里山大道,马鞍山市,B022B00MQC,31.687835,118.537349,东城花园三村,"118.536329,31.687942_118.537128,31.68814_118.537096,31.688382_118.537123,31.688647_118.537155,31.688748_118.537318,31.688816_118.537651,31.68888_118.537761,31.688866_118.53786,31.688789_118.538051,31.688371_118.538306,31.687686_118.538327,31.687611_118.53826,31.687533_118.538095,31.687465_118.537749,31.687352_118.537651,31.687286_118.537592,31.687205_118.537509,31.6871_118.536685,31.686844_118.53638,31.687757_118.536329,31.687942"
340503,湖南东路,马鞍山市,B022B00MQE,31.690424,118.537651,东城花园五村,"118.536798,31.691953_118.536543,31.690769_118.536471,31.690392_118.536382,31.689746_118.536326,31.689139_118.536369,31.689014_118.537018,31.689011_118.537029,31.688881_118.53764,31.688916_118.53764,31.689062_118.537957,31.68908_118.538053,31.689246_118.53816,31.689516_118.538268,31.689557_118.538565,31.689619_118.538713,31.689662_118.538976,31.68984_118.539032,31.689931_118.539051,31.690013_118.539107,31.690691_118.539072,31.690871_118.538818,31.691558_118.538675,31.691691_118.537876,31.691768_118.5376,31.691718_118.537498,31.691732_118.537366,31.691748_118.537195,31.691885_118.537157,31.691914_118.53712,31.691928_118.536798,31.691953"
340503,霍里镇,马鞍山市,B022B0M4EP,31.687414,118.538851,东城花园四村,"118.537286,31.686827_118.537841,31.687321_118.53834,31.687456_118.538388,31.687501_118.538407,31.687563_118.538407,31.68765_118.538039,31.688738_118.538093,31.689012_118.53908,31.68901_118.539077,31.689551_118.539552,31.689583_118.53969,31.689354_118.539821,31.685825_118.53897,31.685813_118.538876,31.685668_118.537857,31.686153_118.5376,31.686314_118.537262,31.686756_118.537286,31.686827"
340521,振兴路,马鞍山市,B022B00KQD,31.547953,118.49881,东城蓝湾,"118.500553,31.547493_118.500565,31.546654_118.500549,31.546636_118.500519,31.546633_118.497691,31.546843_118.497626,31.54686_118.497587,31.54689_118.497558,31.546917_118.497538,31.546947_118.497529,31.546975_118.497528,31.547026_118.497955,31.549526_118.499384,31.549702_118.499374,31.547515_118.500553,31.547493"
340503,江东大道中段与重阳路交叉口东北150米,马鞍山市,B022B0M4EE,31.678192,118.524648,东岗小区(江东大道中段),"118.523843,31.677062_118.523929,31.67698_118.524203,31.676966_118.525415,31.67694_118.525408,31.679135_118.525418,31.679594_118.524926,31.679607_118.524922,31.679372_118.524454,31.679361_118.52445,31.679313_118.523831,31.679295_118.523843,31.677062"
340503,雨山东路和花园路交叉路西南角,马鞍山市,B0FFH4UEQ3,31.671084,118.540087,东方丽景,"118.540259,31.671692_118.540896,31.671623_118.540801,31.670442_118.540802,31.670295_118.540788,31.669939_118.540754,31.669906_118.540065,31.669903_118.54005,31.669914_118.540018,31.669922_118.53999,31.669923_118.539979,31.670483_118.539276,31.67048_118.539267,31.67049_118.539318,31.671158_118.539343,31.671663_118.539412,31.671896_118.539475,31.672275_118.540278,31.672232_118.540259,31.671692"
340503,慈湖河路与湖南路交叉口往南,马鞍山市,B0FFHFZJD3,31.682281,118.534431,朝辉东方城1区,"118.534989,31.684161_118.53324,31.68417_118.533165,31.684145_118.533114,31.684085_118.533052,31.683987_118.533028,31.682873_118.532988,31.681673_118.532983,31.681082_118.533573,31.681079_118.533621,31.681052_118.533653,31.680997_118.533675,31.680901_118.533672,31.680625_118.536239,31.680593_118.536046,31.681572_118.535869,31.682205_118.535681,31.682679_118.535405,31.683213_118.535182,31.683688_118.535072,31.683964_118.534989,31.684161"
340503,慈湖河路东200米,马鞍山市,B0FFGLMKN5,31.680262,118.534986,朝辉东方城2区,"118.536207,31.678023_118.536175,31.678538_118.536213,31.678896_118.53627,31.67977_118.536255,31.680293_118.536069,31.680369_118.535507,31.680391_118.534678,31.680392_118.53318,31.680386_118.533072,31.680284_118.533024,31.680212_118.533011,31.680047_118.533014,31.678105_118.533117,31.678066_118.536207,31.678023"
340503,慈湖河路东50米,马鞍山市,B0FFFRXK58,31.675299,118.536325,东方城2期,"118.533004,31.677999_118.534339,31.677987_118.534444,31.676337_118.534637,31.676241_118.53622,31.676597_118.536574,31.676757_118.536974,31.676683_118.539295,31.675888_118.538976,31.673248_118.535638,31.67338_118.534702,31.674549_118.533371,31.676163_118.533017,31.67677_118.533004,31.677999"
340503,天宝路与雨山东路交汇处西南150米,马鞍山市,B0FFG9B71F,31.671689,118.538037,东方天骏·九珑湾,"118.536303,31.672881_118.536212,31.672708_118.538288,31.669946_118.538433,31.669909_118.538556,31.669905_118.538899,31.669946_118.538969,31.67001_118.539018,31.670074_118.539168,31.672667_118.53913,31.672763_118.53906,31.672808_118.538953,31.672818_118.536303,31.672881"
340503,慈湖河路西150米,马鞍山市,B022B0MI6P,31.708383,118.530438,东方明珠一村,"118.529323,31.709702_118.531099,31.709673_118.531678,31.707135_118.53167,31.707065_118.531641,31.707026_118.531587,31.706987_118.530364,31.706994_118.530324,31.707037_118.530276,31.707574_118.529337,31.707574_118.52931,31.707603_118.529286,31.707688_118.529348,31.708121_118.529345,31.70944_118.529323,31.709702"
340503,慈湖河路东方明珠世纪花园三村,马鞍山市,B022B0MI8E,31.711639,118.529474,东方明珠三村,"118.526979,31.711771_118.528894,31.711767_118.528938,31.711761_118.528968,31.711745_118.529039,31.711679_118.529063,31.711617_118.529107,31.710098_118.52912,31.710065_118.529143,31.710051_118.529188,31.710035_118.530733,31.71003_118.530786,31.710094_118.53084,31.710112_118.531016,31.71012_118.531035,31.710132_118.531041,31.710146_118.530996,31.7125_118.530977,31.712539_118.530936,31.712564_118.530441,31.712773_118.53041,31.712781_118.530369,31.712784_118.527093,31.712757_118.527058,31.712746_118.527043,31.712727_118.527043,31.712716_118.526979,31.711771"
340503,马桥山路与江东大道北段交叉口东北150米,马鞍山市,B022B0M932,31.71141,118.527635,东方明珠世纪花园,"118.52382,31.711728_118.523819,31.710219_118.523877,31.710078_118.523956,31.710041_118.52549,31.710025_118.525573,31.710044_118.525645,31.710076_118.525638,31.710593_118.526257,31.710583_118.526301,31.709979_118.526898,31.709975_118.527046,31.70992_118.527194,31.709843_118.527189,31.709325_118.527082,31.709247_118.526814,31.709155_118.525921,31.709175_118.526417,31.707543_118.528887,31.707524_118.530019,31.707533_118.530125,31.707487_118.530163,31.706946_118.531693,31.706964_118.531754,31.706967_118.531807,31.707037_118.531696,31.707535_118.531588,31.708041_118.531415,31.708783_118.531265,31.709516_118.531211,31.70982_118.531122,31.709876_118.53111,31.710176_118.531065,31.712852_118.529675,31.712851_118.529673,31.713274_118.529165,31.713489_118.528922,31.713756_118.52863,31.714336_118.528587,31.715228_118.528388,31.71544_118.527065,31.715527_118.525725,31.715864_118.525498,31.715796_118.525494,31.715245_118.523831,31.715241_118.52382,31.711728"
340503,东方明珠路,马鞍山市,B022B0MI6E,31.713699,118.526228,东方明珠六村,"118.523891,31.715186_118.525519,31.715179_118.525514,31.715631_118.525554,31.71572_118.525642,31.715771_118.526503,31.715599_118.526997,31.715426_118.528349,31.715382_118.528556,31.715004_118.528536,31.714382_118.528884,31.713618_118.529242,31.713338_118.529615,31.713269_118.529619,31.712811_118.527032,31.712799_118.526956,31.711763_118.52388,31.711783_118.523891,31.715186"
340504,慈湖河路与翡翠风情街交叉口西150米,马鞍山市,B022B0MYBT,31.659765,118.531319,东方翡翠北苑,"118.530372,31.660821_118.53037,31.659878_118.53045,31.659462_118.530485,31.658662_118.532151,31.658651_118.53229,31.660587_118.532207,31.660819_118.530372,31.660821"
340504,慈湖河路与翡翠风情街交叉口西南150米,马鞍山市,B022B0M4F1,31.657675,118.531005,东方翡翠南苑,"118.530068,31.657389_118.530453,31.657384_118.530453,31.657048_118.531832,31.657051_118.531832,31.65734_118.531858,31.657342_118.531872,31.658235_118.530965,31.65824_118.530058,31.658241_118.530068,31.657389"
340503,花山美居江东大道277号,马鞍山市,B022B0M4EK,31.696026,118.52202,东晖花园(江东大道北段),"118.521731,31.693488_118.521726,31.692566_118.522332,31.692568_118.522332,31.692872_118.522879,31.692872_118.522857,31.694734_118.522739,31.694802_118.522798,31.695218_118.52326,31.695219_118.523268,31.696831_118.520771,31.696788_118.520784,31.696254_118.521715,31.696217_118.521642,31.695679_118.521583,31.695323_118.522479,31.695158_118.522222,31.694816_118.522249,31.693543_118.521731,31.693488"
340504,"江东大道与九华路交叉口,紧邻东湖公园",马鞍山市,B022B0MJJI,31.654486,118.520238,东湖瑞景,"118.518203,31.654655_118.51821,31.654588_118.518667,31.654442_118.518674,31.654053_118.518617,31.654052_118.518616,31.65366_118.52033,31.653636_118.522143,31.653607_118.522155,31.654269_118.522568,31.654276_118.522574,31.654687_118.521573,31.654712_118.520329,31.655563_118.518963,31.655559_118.518203,31.654655"
340504,江东大道与印山路的交叉口,马鞍山市,B022B00KLD,31.66101,118.521558,东湖碧水湾(江东大道中段),"118.518774,31.660464_118.519054,31.660467_118.519057,31.659835_118.519217,31.659698_118.519213,31.659495_118.521539,31.659484_118.522785,31.659488_118.522784,31.65971_118.522804,31.659791_118.522838,31.65983_118.522875,31.659871_118.522883,31.660146_118.523248,31.660141_118.52326,31.661807_118.523267,31.662822_118.523269,31.662956_118.523237,31.662997_118.523196,31.663024_118.523151,31.663048_118.523083,31.663063_118.521342,31.663079_118.521311,31.663068_118.521303,31.663037_118.521305,31.662382_118.52081,31.661694_118.520216,31.660856_118.520153,31.660746_118.518873,31.660767_118.518812,31.660741_118.518782,31.660693_118.518774,31.660464"
340504,"东湖公园边,江南御花园与翡翠森林花园之间",马鞍山市,B0FFGWV85T,31.657307,118.527296,东湖蓝郡,"118.525794,31.657055_118.52741,31.657056_118.527727,31.657095_118.528869,31.657602_118.528738,31.657839_118.527744,31.657411_118.52766,31.657388_118.52753,31.65737_118.526235,31.657356_118.525802,31.657363_118.525794,31.657055"
340503,江东大道3001号,马鞍山市,B022B004CF,31.699095,118.521343,东苑小区(湖北东路),"118.519628,31.698761_118.519632,31.697736_118.519636,31.697104_118.519714,31.696989_118.519785,31.696925_118.519862,31.696866_118.520305,31.696902_118.520885,31.696943_118.521362,31.696957_118.521832,31.69696_118.522302,31.696967_118.522804,31.696967_118.5231,31.696989_118.523228,31.697038_118.523244,31.697086_118.52326,31.697153_118.523277,31.69787_118.523279,31.698573_118.523277,31.699117_118.523279,31.69992_118.523255,31.700624_118.522604,31.700636_118.522589,31.701287_118.522065,31.701281_118.522049,31.700661_118.521306,31.700634_118.521296,31.701296_118.518775,31.701316_118.518625,31.701304_118.518557,31.701296_118.518522,31.701275_118.518495,31.701254_118.518479,31.701216_118.51851,31.701176_118.51871,31.700943_118.5192,31.700316_118.519536,31.699906_118.51987,31.69995_118.520317,31.700071_118.520411,31.699991_118.520375,31.699026_118.520222,31.698754_118.519628,31.698761"
340503,东安路与安源路交叉口东100米,马鞍山市,B0FFFQ7CY9,31.699368,118.520055,马鞍山市东苑小学,"118.519686,31.698784_118.519766,31.698768_118.520189,31.698763_118.520361,31.699034_118.520391,31.699734_118.520401,31.699985_118.52032,31.700057_118.519874,31.69994_118.51987,31.699603_118.519704,31.699611_118.519686,31.698784"
340522,望梅路东150米,马鞍山市,B02350O9SU,31.724137,118.115898,东苑小区,"118.113449,31.724241_118.116571,31.725822_118.116657,31.725831_118.116721,31.725822_118.116957,31.725512_118.117079,31.724866_118.117132,31.724781_118.117032,31.72473_118.117756,31.722951_118.11589,31.722423_118.115838,31.722437_118.115807,31.722535_118.115791,31.722656_118.11597,31.722698_118.11579,31.723897_118.115666,31.724149_118.114058,31.723329_118.11398,31.723347_118.113449,31.724143_118.113449,31.724241"
340521,姑孰镇东营路东营小区,马鞍山市,B0FFH1CK8U,31.558758,118.494998,东营小区一村,"118.493624,31.560412_118.493855,31.559318_118.493882,31.559306_118.493994,31.559327_118.494048,31.559052_118.494013,31.559043_118.493908,31.559023_118.493898,31.558993_118.494042,31.558355_118.494144,31.557347_118.494187,31.557334_118.494531,31.557341_118.494539,31.557217_118.494571,31.557197_118.494638,31.557201_118.494692,31.557226_118.494759,31.557229_118.495,31.557222_118.495156,31.55695_118.495201,31.556922_118.49618,31.556941_118.496231,31.556961_118.496263,31.556984_118.496277,31.557_118.496129,31.557761_118.496043,31.557832_118.495904,31.558719_118.496027,31.558728_118.495893,31.560159_118.495866,31.560323_118.495837,31.56038_118.494649,31.560294_118.4946,31.560312_118.494592,31.560488_118.493624,31.560412"
340504,湖南路25号,马鞍山市,B022B0MIKV,31.68281,118.494404,中冶设计院小区,"118.493519,31.683923_118.493949,31.683924_118.493949,31.683831_118.494583,31.683833_118.494587,31.682881_118.495816,31.682858_118.495832,31.682155_118.494494,31.68214_118.494494,31.682017_118.493515,31.682017_118.493519,31.683923"
340503,湖北东路479号,马鞍山市,B022B004CE,31.69959,118.518336,中周家园,"118.517575,31.700497_118.517959,31.70076_118.518187,31.700463_118.518184,31.70032_118.518935,31.700281_118.519015,31.699872_118.519428,31.699857_118.519515,31.699715_118.519533,31.698807_118.519471,31.698724_118.518766,31.698725_118.518061,31.698727_118.518066,31.699035_118.517336,31.699051_118.517341,31.699503_118.516971,31.70013_118.517069,31.700202_118.517588,31.700299_118.517575,31.700497"
340503,中周家园,马鞍山市,B0FFF0F828,31.699147,118.516787,安源小区,"118.515563,31.699559_118.516073,31.698832_118.516191,31.698705_118.516334,31.698601_118.516364,31.698552_118.516372,31.698322_118.517183,31.698297_118.517418,31.698329_118.517596,31.698373_118.517741,31.698411_118.517977,31.698422_118.517982,31.698724_118.518044,31.698724_118.518052,31.699008_118.517322,31.69904_118.517325,31.699485_118.516997,31.700038_118.516797,31.700295_118.515563,31.699559"
340503,金宝贝附近,马鞍山市,B0FFF4NUFP,31.679805,118.507693,中央花园(花雨路),"118.506028,31.680797_118.50579,31.680566_118.505709,31.680406_118.505661,31.680212_118.505627,31.678908_118.50572,31.678797_118.505851,31.678751_118.509735,31.678738_118.509799,31.678747_118.509864,31.678843_118.509861,31.680048_118.5093,31.680038_118.509314,31.681002_118.506657,31.680964_118.506398,31.680961_118.506028,31.680797"
340523,和州路259号(和县公安局对面),马鞍山市,B0FFG909MF,31.735202,118.350176,中央花园,"118.349231,31.735941_118.349239,31.734215_118.351095,31.734233_118.351076,31.736115_118.351017,31.736238_118.35091,31.736288_118.350749,31.73627_118.349236,31.73606_118.349231,31.735941"
340522,昭关南路,马鞍山市,B023501GYM,31.724871,118.107202,美华·中央花园,"118.10627,31.72514_118.107555,31.725503_118.1077,31.725398_118.108124,31.724638_118.10723,31.724209_118.106914,31.724447_118.106622,31.724508_118.106487,31.724545_118.106249,31.725101_118.10627,31.72514"
340504,西园路,马鞍山市,B022B0M4GM,31.687184,118.492409,中山花园,"118.49335,31.687577_118.493379,31.687578_118.493402,31.687571_118.493416,31.687558_118.493422,31.687536_118.493422,31.687227_118.493236,31.687227_118.493236,31.687028_118.492536,31.687036_118.492542,31.68653_118.491981,31.68653_118.491977,31.686927_118.491603,31.686927_118.491597,31.687546_118.491602,31.687565_118.491618,31.687582_118.491641,31.687589_118.491675,31.68759_118.49335,31.687577"
340503,中岗路与矿中路交叉口西北100米,马鞍山市,B022B0MI75,31.683623,118.517836,中岗一村,"118.516735,31.683214_118.516747,31.683727_118.516799,31.683739_118.516802,31.684201_118.518838,31.684205_118.518874,31.684165_118.518853,31.683185_118.518603,31.683181_118.518593,31.68297_118.517297,31.682984_118.517273,31.68301_118.51727,31.683206_118.516735,31.683214"
340503,矿南路与矿西路交叉口西100米,马鞍山市,B022B0MI7H,31.681726,118.519168,中岗三村,"118.518888,31.682858_118.518927,31.682849_118.518954,31.682838_118.519956,31.68234_118.519978,31.682319_118.519994,31.682297_118.520009,31.68227_118.520016,31.682239_118.520016,31.682203_118.520037,31.680814_118.520032,31.680791_118.520023,31.68078_118.519993,31.680774_118.519954,31.680772_118.518385,31.680781_118.518357,31.680784_118.518336,31.680793_118.518325,31.680805_118.518323,31.680823_118.518325,31.682802_118.518332,31.682842_118.518338,31.682854_118.518361,31.682871_118.518381,31.682874_118.518415,31.682876_118.518888,31.682858"
340503,佳山路与菊园路交叉口东北150米,马鞍山市,B022B0MILM,31.681624,118.516607,中岗二村,"118.516785,31.682882_118.516777,31.681709_118.517449,31.681695_118.517465,31.681257_118.518184,31.681246_118.518189,31.680782_118.515841,31.680775_118.515752,31.680822_118.515754,31.682884_118.516785,31.682882"
340503,解放路37号中心商厦1层,马鞍山市,B0FFFTJWMJ,31.703564,118.506185,中马新大新,"118.506061,31.703691_118.506085,31.703422_118.506308,31.703437_118.506288,31.703705_118.506061,31.703691"
340503,霍里山大道西100米,马鞍山市,B0FFGLMJI0,31.706163,118.553011,丰收佳苑,"118.554257,31.709907_118.55155,31.70802_118.551265,31.70779_118.550484,31.707107_118.550471,31.707008_118.550527,31.706906_118.551689,31.704768_118.55278,31.702725_118.554419,31.702726_118.554484,31.702763_118.554484,31.705963_118.554483,31.707212_118.554472,31.708016_118.55451,31.709902_118.554257,31.709907"
340504,,马鞍山市,B0FFFRJGF7,31.670517,118.467123,九华万家花园,"118.462812,31.669291_118.462952,31.669757_118.463155,31.670213_118.463509,31.670652_118.463971,31.671254_118.464529,31.671766_118.465226,31.672286_118.465956,31.672788_118.466546,31.672971_118.467093,31.673026_118.469432,31.67288_118.469571,31.672834_118.469603,31.672706_118.470043,31.672706_118.470135,31.672587_118.47022,31.672386_118.470317,31.671592_118.470317,31.670894_118.47033,31.670371_118.470272,31.670264_118.469853,31.670307_118.469837,31.670308_118.46982,31.670304_118.46981,31.670281_118.469764,31.669755_118.469778,31.669748_118.470167,31.669723_118.470046,31.669365_118.469985,31.668533_118.469958,31.66814_118.469775,31.668131_118.467662,31.668172_118.467409,31.668232_118.467061,31.6682_118.466894,31.668442_118.466685,31.668346_118.466471,31.668195_118.466127,31.668182_118.465779,31.668182_118.465543,31.668287_118.46469,31.6692_118.464464,31.669204_118.462941,31.669227_118.462812,31.669291"
340503,解放路,马鞍山市,B022B0M4EJ,31.696696,118.513978,九缘城市花园,"118.512428,31.697571_118.51284,31.697781_118.513332,31.69714_118.513891,31.697465_118.514054,31.697278_118.514459,31.697508_118.51474,31.697472_118.51512,31.697505_118.515157,31.697335_118.514903,31.697274_118.514955,31.696942_118.51486,31.696823_118.514888,31.696307_118.514805,31.696153_118.514844,31.695914_118.514979,31.695697_118.514964,31.695677_118.514571,31.695632_118.514413,31.695642_118.51424,31.695661_118.514141,31.69571_118.513938,31.695881_118.513869,31.695896_118.513433,31.69598_118.51328,31.696059_118.51317,31.696667_118.512428,31.697571"
340521,振兴北路与太白大道交汇处(太白公园以东200米),马鞍山市,B022B00LFI,31.567652,118.502237,九韵国际,"118.500499,31.569298_118.503919,31.569227_118.504104,31.569081_118.504179,31.567054_118.504209,31.566149_118.504193,31.566069_118.50405,31.566005_118.500502,31.566094_118.500427,31.566165_118.500338,31.566311_118.500277,31.569133_118.500499,31.569298"
340503,天门大道北段与玉兰巷交叉口东北100米,马鞍山市,B022B0MH0T,31.719207,118.505945,书林嘉园-一村,"118.505065,31.719661_118.50486,31.719489_118.505272,31.718926_118.50543,31.718681_118.505481,31.718654_118.505528,31.718638_118.506519,31.719762_118.506085,31.719943_118.505872,31.720162_118.505791,31.720285_118.505651,31.720162_118.505065,31.719661"
340521,小桥路与黄池路交叉口东南150米,马鞍山市,B0FFG3H0RV,31.555863,118.515074,五星佳苑东区,"118.512702,31.558391_118.517434,31.558308_118.51746,31.557069_118.51745,31.556338_118.517423,31.555908_118.517385,31.55451_118.517342,31.554519_118.517332,31.554276_118.516318,31.554267_118.516302,31.554039_118.516253,31.553815_118.516152,31.553604_118.516044,31.553467_118.515824,31.553294_118.515486,31.553143_118.515309,31.553115_118.514628,31.553093_118.514338,31.552933_118.51355,31.552942_118.513426,31.552974_118.512632,31.553705_118.512724,31.55386_118.51274,31.55402_118.512783,31.554404_118.512863,31.555232_118.51296,31.555488_118.513003,31.555584_118.514354,31.555575_118.514376,31.555995_118.514376,31.556329_118.513614,31.556334_118.513609,31.556059_118.513448,31.556192_118.513153,31.556471_118.512911,31.556795_118.512793,31.55706_118.512708,31.557408_118.512708,31.557705_118.512708,31.558112_118.512702,31.558391"
340503,军休路与雨山东路交叉口东北100米,马鞍山市,B0FFG0GHB7,31.673499,118.514750,新岗五村,"118.514369,31.673312_118.515471,31.67331_118.515541,31.673345_118.515568,31.673454_118.51557,31.675399_118.514406,31.675385_118.514369,31.673312"
340504,育才路,马鞍山市,B022B00MTP,31.688791,118.493312,雨山五村,"118.492664,31.689313_118.491659,31.68929_118.491693,31.687697_118.493472,31.687685_118.494952,31.687706_118.495009,31.687713_118.495038,31.687733_118.495049,31.687761_118.49506,31.687827_118.49507,31.689153_118.495054,31.689187_118.495036,31.689206_118.495017,31.689224_118.494995,31.689231_118.493724,31.689274_118.493727,31.690217_118.493217,31.690212_118.49322,31.690703_118.493552,31.69071_118.493563,31.690874_118.49308,31.690901_118.493075,31.690803_118.492686,31.690803_118.492664,31.689313"
340504,印山西路附近,马鞍山市,B022B0MI8C,31.663874,118.4856,映翠花园五村,"118.484443,31.66558_118.484435,31.664222_118.485185,31.664226_118.485206,31.66352_118.486857,31.663513_118.486901,31.663525_118.486926,31.663557_118.486865,31.66484_118.486187,31.664842_118.486193,31.665641_118.484549,31.665642_118.484498,31.665635_118.484457,31.665615_118.484443,31.66558"
340503,健康路与康城路交叉口西150米,马鞍山市,B022B0M4EM,31.705031,118.515863,交机新村,"118.515265,31.704194_118.516066,31.704044_118.51646,31.703985_118.516607,31.704141_118.516538,31.704159_118.516489,31.704295_118.516609,31.704498_118.516562,31.704564_118.51661,31.704665_118.516661,31.704855_118.515972,31.705015_118.515324,31.705156_118.51528,31.704978_118.515302,31.70483_118.515402,31.704824_118.51545,31.704788_118.51545,31.704702_118.515423,31.704562_118.515341,31.704327_118.515265,31.704194"
340523,海峰路,马鞍山市,B02350O9TY,31.733075,118.342782,京都公馆,"118.343267,31.735052_118.343439,31.735098_118.343535,31.735099_118.343628,31.735072_118.343697,31.735029_118.343733,31.734987_118.343745,31.734933_118.343836,31.732392_118.343871,31.730747_118.343857,31.730699_118.343829,31.730675_118.343782,31.730659_118.343734,31.730662_118.343177,31.730884_118.342933,31.731027_118.342658,31.731147_118.342473,31.731235_118.342339,31.731296_118.342176,31.731481_118.342102,31.731578_118.34205,31.731684_118.341999,31.731853_118.341979,31.731981_118.341988,31.732116_118.34202,31.732503_118.342017,31.732773_118.341924,31.733037_118.341803,31.733227_118.341696,31.733352_118.341582,31.733455_118.341623,31.73351_118.341451,31.733623_118.341374,31.733532_118.341205,31.733611_118.34098,31.733719_118.340953,31.733751_118.340953,31.733792_118.340947,31.733995_118.340926,31.734227_118.340935,31.734258_118.34095,31.734272_118.340965,31.734286_118.341005,31.734299_118.341186,31.73436_118.343267,31.735052"
340503,沙塘路与湖北西路交叉口西100米,马鞍山市,B022B0M4CB,31.699255,118.500891,人民新村,"118.50022,31.700597_118.500694,31.700602_118.500686,31.700098_118.500434,31.700093_118.50044,31.699881_118.500367,31.699879_118.500393,31.699691_118.500934,31.699591_118.501349,31.699687_118.501657,31.69973_118.502104,31.699874_118.502144,31.699769_118.502646,31.699872_118.502705,31.699678_118.502581,31.699269_118.502493,31.699105_118.502434,31.698765_118.50242,31.698133_118.5016,31.698119_118.501605,31.697943_118.501162,31.697959_118.50102,31.69808_118.500795,31.698092_118.50079,31.698458_118.500725,31.698573_118.499949,31.698566_118.499938,31.69893_118.499805,31.699244_118.499774,31.699407_118.498845,31.699418_118.498825,31.69972_118.49873,31.699726_118.49874,31.699807_118.498956,31.700073_118.499501,31.700261_118.499832,31.70049_118.50022,31.700597"
340504,太白大道与西塘路交叉口东北150米,马鞍山市,B0FFG9FDY5,31.651314,118.505424,人行公寓,"118.505287,31.650764_118.505852,31.650756_118.505878,31.651863_118.504839,31.651628_118.504826,31.651088_118.505287,31.6511_118.505287,31.650764"
340503,园桥路附近,马鞍山市,B022B0MH2Q,31.717979,118.513327,今日家园(园桥路),"118.512811,31.716604_118.51293,31.716243_118.514142,31.716408_118.513511,31.719838_118.512436,31.719688_118.512502,31.71933_118.512594,31.719267_118.512748,31.718782_118.512877,31.718552_118.512924,31.718461_118.513015,31.718101_118.512958,31.717384_118.5129,31.717113_118.51283,31.716985_118.512811,31.716604"
340503,慈湖河路与旅游大道交叉口,马鞍山市,B0FFHMZALV,31.701913,118.531825,伟星·壹号院,"118.530764,31.704456_118.530817,31.703021_118.530748,31.702534_118.530732,31.701576_118.53085,31.701563_118.53247,31.701599_118.532539,31.701679_118.532523,31.704337_118.532421,31.70441_118.53196,31.704465_118.53159,31.704479_118.530764,31.704456"
340504,马鞍山红星中学对面,马鞍山市,B0FFF54GBB,31.682493,118.489157,伟星时代广场,"118.488629,31.684331_118.489809,31.684331_118.489747,31.682389_118.490064,31.682382_118.489983,31.681581_118.489592,31.681581_118.489549,31.68059_118.489345,31.680604_118.488589,31.680577_118.488492,31.680599_118.488546,31.684288_118.488629,31.684331"
340504,雨山东路与东环路交汇处,马鞍山市,B022B0MDF8,31.662058,118.546147,伟星·蓝山,"118.548791,31.671166_118.548437,31.670252_118.547381,31.670458_118.546871,31.670467_118.546281,31.670376_118.545401,31.669764_118.545047,31.66876_118.544768,31.668431_118.544425,31.668221_118.543985,31.668084_118.543459,31.668184_118.542698,31.665226_118.54296,31.66518_118.542858,31.664751_118.543567,31.664303_118.543599,31.664157_118.544264,31.663892_118.544897,31.664121_118.545525,31.664518_118.546141,31.664614_118.547075,31.665308_118.547772,31.6657_118.548502,31.665911_118.549017,31.666184_118.549092,31.666541_118.549779,31.666805_118.550454,31.666294_118.550176,31.665956_118.549736,31.665582_118.548867,31.665043_118.548212,31.664796_118.5473,31.664413_118.546774,31.663965_118.546474,31.663582_118.546335,31.663116_118.546313,31.660852_118.546335,31.659975_118.546259,31.659683_118.546045,31.659331_118.542225,31.661372_118.541839,31.661838_118.542494,31.664769_118.543373,31.668266_118.544082,31.670942_118.544296,31.671627_118.544436,31.671955_118.544495,31.672257_118.544715,31.672389_118.544983,31.67238_118.545991,31.672156_118.548791,31.671166"
340503,党校路99号,马鞍山市,B0FFF6YKM3,31.688226,118.5201,佳山墅,"118.519378,31.690885_118.519517,31.690985_118.519801,31.691063_118.51993,31.691067_118.52007,31.690971_118.520429,31.690551_118.52066,31.690223_118.520794,31.689999_118.520944,31.689661_118.521041,31.689282_118.521153,31.688744_118.521234,31.688388_118.521325,31.687881_118.521357,31.687575_118.521384,31.687087_118.521432,31.686544_118.521421,31.686388_118.521357,31.686238_118.521207,31.686105_118.521057,31.686032_118.520945,31.685998_118.520924,31.685925_118.520366,31.685871_118.51968,31.685855_118.519532,31.685855_118.519358,31.68586_118.519347,31.686139_118.519308,31.686568_118.51927,31.686931_118.519219,31.687347_118.519186,31.687459_118.519117,31.687527_118.518944,31.687613_118.518738,31.687694_118.518653,31.687814_118.518626,31.688077_118.518623,31.688265_118.518671,31.68837_118.518741,31.688456_118.518921,31.688684_118.519023,31.688949_118.519066,31.68925_118.519151,31.689862_118.519184,31.690341_118.519378,31.690885"
340503,湖东北路东100米,马鞍山市,B022B0MNCD,31.6865,118.511134,佳山新村,"118.510805,31.687939_118.511942,31.687925_118.511956,31.687323_118.512095,31.687325_118.512098,31.687115_118.511983,31.687111_118.511988,31.686832_118.511819,31.686833_118.511827,31.68518_118.511763,31.685161_118.510303,31.685157_118.51029,31.687339_118.51081,31.687337_118.510805,31.687939"
340523,天门山南路与巢宁路交叉口东北150米,马鞍山市,B0FFGF98UQ,31.731995,118.353924,佳源中央城,"118.357509,31.729732_118.351904,31.727581_118.351791,31.727679_118.351555,31.736143_118.351771,31.736375_118.354134,31.736726_118.354458,31.736415_118.354668,31.736289_118.354877,31.736221_118.35477,31.73486_118.354688,31.73296_118.354678,31.732389_118.35485,31.732177_118.355014,31.732156_118.355553,31.732254_118.355765,31.732359_118.355773,31.733026_118.355991,31.733106_118.356349,31.733292_118.356472,31.733127_118.356728,31.733114_118.356771,31.733165_118.357064,31.733135_118.357061,31.732891_118.35714,31.732276_118.357207,31.731869_118.357509,31.729732"
340503,旅游大道与霍里山大道交汇处西南侧,马鞍山市,B0FFFQ216T,31.69513,118.553134,秀山信达城,"118.554486,31.694039_118.554512,31.694093_118.554549,31.694536_118.554534,31.695567_118.554535,31.696016_118.554435,31.696142_118.553294,31.696227_118.55187,31.696315_118.551709,31.696237_118.551678,31.695367_118.551693,31.69449_118.551693,31.694333_118.551747,31.694278_118.55191,31.694213_118.552513,31.694108_118.554287,31.693846_118.554486,31.694039"
340503,X001(旅游大道),马鞍山市,B0FFIBCP90,31.699116,118.55312,秀山信达城2期,"118.55168,31.698392_118.554561,31.698131_118.554588,31.699222_118.554529,31.699332_118.554475,31.699391_118.552549,31.700377_118.552377,31.700414_118.552281,31.700391_118.552125,31.700281_118.55168,31.698392"
340504,湖西南路670号,马鞍山市,B022B0MOHK,31.670384,118.499791,八一大院,"118.499531,31.671638_118.499547,31.67245_118.500287,31.672453_118.500282,31.672199_118.500995,31.672203_118.500929,31.668671_118.498504,31.668687_118.498511,31.671614_118.499531,31.671638"
340504,雨山路,马鞍山市,B022B0MD9F,31.670082,118.502919,八三大院,"118.501075,31.670783_118.501073,31.670137_118.502609,31.670138_118.502633,31.668722_118.503954,31.668721_118.503984,31.670825_118.503618,31.670826_118.503595,31.671398_118.50295,31.671389_118.50295,31.670864_118.501205,31.670866_118.501154,31.670851_118.501103,31.670821_118.501075,31.670783"
340503,健康路与阌家山路交叉口南150米,马鞍山市,B0FFGBFO4X,31.703700,118.518020,八队新村,"118.516704,31.704852_118.517407,31.704783_118.518201,31.704769_118.518199,31.703512_118.518754,31.703517_118.518764,31.702741_118.518298,31.702741_118.518287,31.702814_118.517866,31.702825_118.517856,31.703859_118.51815,31.703863_118.518154,31.704538_118.516941,31.704566_118.516765,31.704624_118.516685,31.704635_118.516704,31.704852"
340503,沙塘路街道公园新村10号,马鞍山市,B0FFHDL4FG,31.696001,118.508611,马鞍山市妇联第二幼儿园,"118.508489,31.696121_118.508497,31.695934_118.508805,31.695931_118.508804,31.696123_118.508489,31.696121"
340503,健康路,马鞍山市,B022B0M8RE,31.708721,118.516207,兰馨佳苑,"118.517199,31.710178_118.517269,31.710186_118.517357,31.71017_118.517512,31.710034_118.517451,31.709794_118.517416,31.70962_118.517293,31.709563_118.517203,31.709334_118.516838,31.70934_118.516801,31.709296_118.516672,31.708987_118.516605,31.708826_118.516573,31.708792_118.516514,31.708517_118.516455,31.708298_118.516443,31.708187_118.516504,31.708155_118.516492,31.707801_118.517296,31.70774_118.517325,31.707701_118.517285,31.707547_118.517258,31.707521_118.516211,31.707572_118.515409,31.707624_118.514821,31.707671_118.514794,31.707697_118.514784,31.707739_118.514875,31.708072_118.515335,31.708076_118.515382,31.70836_118.515803,31.709251_118.51579,31.709302_118.515623,31.709409_118.515603,31.709439_118.515523,31.709543_118.515596,31.709778_118.515941,31.709691_118.516292,31.709603_118.517072,31.710231_118.517199,31.710178"
340504,湖东南路198号,马鞍山市,B0FFF6Y1PK,31.638538,118.511907,凡尔赛公馆,"118.513355,31.639998_118.510088,31.639991_118.50997,31.639854_118.510013,31.637205_118.514289,31.637304_118.514359,31.637459_118.514348,31.638427_118.513363,31.63845_118.513355,31.639998"
340522,太湖山路西侧,马鞍山市,B023501GYP,31.730444,118.09757,凤凰城小区(含山县国土资源局南),"118.098534,31.730749_118.098379,31.732396_118.096273,31.732232_118.096288,31.731931_118.096117,31.73191_118.096185,31.730573_118.096502,31.730579_118.096528,31.730186_118.09621,31.730164_118.096296,31.72905_118.096318,31.728577_118.096504,31.728545_118.097558,31.728559_118.097531,31.728851_118.098191,31.728915_118.09832,31.728956_118.0984,31.729024_118.09847,31.729079_118.099047,31.729099_118.09921,31.729584_118.099529,31.730719_118.099398,31.730786_118.09936,31.730804_118.098534,31.730749"
340503,花山路附近,马鞍山市,B022B0MI7Y,31.694795,118.516252,剑桥公馆,"118.51498,31.696948_118.514882,31.696822_118.514927,31.696285_118.514817,31.696148_118.51485,31.695923_118.515029,31.695672_118.515485,31.695719_118.515767,31.695032_118.515941,31.694635_118.516341,31.693996_118.515921,31.693514_118.51592,31.69333_118.516273,31.692791_118.516456,31.69261_118.517563,31.69319_118.517848,31.693341_118.517863,31.693369_118.51786,31.693429_118.517524,31.693875_118.517127,31.694566_118.516869,31.694927_118.516167,31.695857_118.516046,31.696099_118.515743,31.696758_118.515491,31.697314_118.515458,31.697331_118.515409,31.697331_118.514931,31.697264_118.51498,31.696948"
340504,向山路附近,马鞍山市,B0FFH0D7LC,31.671065,118.595846,北山嘉苑,"118.595112,31.67056_118.595774,31.670555_118.595766,31.670783_118.596329,31.670774_118.596481,31.6707_118.596616,31.670977_118.596649,31.67111_118.596678,31.67137_118.596177,31.67137_118.596168,31.671496_118.595254,31.671523_118.595238,31.670779_118.59512,31.670781_118.595112,31.67056"
340504,湖西中路与翠湖路交叉口西南150米,马鞍山市,B022B0M4CX,31.681203,118.49678,雨山十二村,"118.495877,31.684218_118.495893,31.684237_118.496384,31.684242_118.49638,31.682748_118.49649,31.682666_118.497809,31.682669_118.497841,31.680466_118.497848,31.679219_118.496182,31.679231_118.49618,31.679133_118.495972,31.679109_118.49591,31.679143_118.495893,31.679692_118.495887,31.680491_118.49589,31.681164_118.495882,31.68194_118.495877,31.682502_118.495878,31.68376_118.495877,31.684218"
340504,,马鞍山市,B0FFIIID59,31.657473,118.597957,十排嘉苑,"118.598345,31.659246_118.598697,31.658191_118.59904,31.657054_118.599225,31.656417_118.599172,31.656349_118.597283,31.656043_118.597211,31.656321_118.597114,31.656732_118.597104,31.656888_118.596978,31.65728_118.596884,31.657625_118.59679,31.65778_118.59657,31.657968_118.598128,31.659166_118.598345,31.659246"
340504,雨山西路与雨田路交叉口东北50米,马鞍山市,B0FFI945AC,31.674107,118.485737,千禧塞纳河畔,"118.484921,31.674804_118.486542,31.674804_118.486547,31.673409_118.485099,31.673402_118.485037,31.673421_118.48498,31.673462_118.48493,31.67355_118.484921,31.674804"
340504,湖南西路与湖西中路交汇处,马鞍山市,B0FFFV52QU,31.683521,118.49713,宁泽园,"118.496443,31.684247_118.497685,31.684236_118.497776,31.684167_118.497801,31.682686_118.497264,31.68269_118.497252,31.683271_118.496919,31.683276_118.496932,31.682714_118.496482,31.682719_118.496443,31.684247"
340521,青莲路华润苏果西侧,马鞍山市,B0FFG0Z134,31.562646,118.492466,华府名邸,"118.491821,31.562974_118.491789,31.562236_118.493211,31.562437_118.493222,31.562853_118.493114,31.562958_118.491821,31.562974"
340503,胜利路2号,马鞍山市,B022B00KW6,31.714519,118.498654,华林雅筑,"118.499592,31.715534_118.50046,31.715399_118.500481,31.715216_118.500018,31.714985_118.499746,31.714781_118.499638,31.714714_118.499455,31.714627_118.499451,31.714617_118.499451,31.714606_118.499463,31.714592_118.499575,31.714507_118.499493,31.714431_118.499491,31.71442_118.499491,31.714405_118.499498,31.714386_118.499623,31.714204_118.499247,31.713801_118.49908,31.713486_118.498972,31.713309_118.498793,31.713039_118.498771,31.713031_118.498743,31.71303_118.498715,31.713033_118.498665,31.713048_118.498592,31.713085_118.497198,31.713909_118.497193,31.713928_118.497193,31.713944_118.497292,31.714123_118.497633,31.714877_118.497889,31.715424_118.497961,31.715567_118.497973,31.715576_118.498,31.715582_118.49847,31.715557_118.498498,31.71565_118.499592,31.715534"
340503,湖东中路31号,马鞍山市,B0FFHPYKKM,31.689186,118.510747,华海城市广场,"118.510231,31.689858_118.510226,31.688367_118.510238,31.688349_118.510262,31.688347_118.511084,31.688429_118.5111,31.688438_118.511116,31.688461_118.511131,31.689411_118.511486,31.689413_118.511512,31.689661_118.511543,31.689784_118.511535,31.689811_118.511523,31.689827_118.511497,31.689842_118.511461,31.689855_118.511417,31.689869_118.510231,31.689858"
340503,天门大道北段与天门大道高架交叉口西北150米,马鞍山市,B022B0MGZE,31.721465,118.50658,南塘嘉苑,"118.50552,31.722118_118.504786,31.720798_118.505177,31.720633_118.505338,31.720814_118.505698,31.720795_118.506512,31.720472_118.506695,31.720696_118.50697,31.720908_118.507384,31.720661_118.508342,31.72165_118.507868,31.72199_118.507824,31.722092_118.507675,31.722193_118.507565,31.722235_118.507372,31.722235_118.507443,31.722425_118.506573,31.722429_118.506405,31.722339_118.506232,31.722174_118.505969,31.721933_118.50552,31.722118"
340503,花山经济开发区,马鞍山市,B0FFFQ89J4,31.718883,118.519353,南方嘉园,"118.51732,31.72055_118.517934,31.719679_118.518677,31.718625_118.51923,31.717833_118.519761,31.717068_118.520166,31.716489_118.520413,31.716614_118.521453,31.717178_118.520906,31.71794_118.520858,31.717958_118.520836,31.717958_118.520496,31.718458_118.519694,31.719594_118.518854,31.720787_118.518543,31.721232_118.518431,31.721367_118.51732,31.72055"
340504,湖南路汇翠名邸,马鞍山市,B022B004C7,31.682483,118.500332,南湖花园,"118.499267,31.682721_118.499568,31.682711_118.499558,31.682055_118.501174,31.682039_118.501183,31.682878_118.499276,31.68291_118.499267,31.682721"
340521,南寺东路与南营路交叉口东北50米,马鞍山市,B0FFG1C8Z4,31.551367,118.494874,南营小区,"118.494156,31.550507_118.495018,31.550502_118.495158,31.551051_118.495472,31.551014_118.49556,31.55136_118.495608,31.551362_118.495681,31.551517_118.49582,31.551572_118.495807,31.551874_118.495869,31.551908_118.495871,31.552082_118.494659,31.552089_118.494656,31.551872_118.494098,31.551853_118.494156,31.550507"
340504,花山雨山路与慈湖河路交汇处,马鞍山市,B022B0MDGO,31.666893,118.53424,印象欧洲,"118.533206,31.667722_118.534093,31.667818_118.53423,31.667829_118.534321,31.667802_118.534447,31.667715_118.535493,31.667213_118.535793,31.667046_118.535815,31.666903_118.536244,31.666824_118.536243,31.666598_118.534737,31.666255_118.534257,31.666161_118.534164,31.666149_118.533948,31.666095_118.533502,31.665982_118.532982,31.665991_118.532972,31.66706_118.53298,31.667621_118.533056,31.667703_118.533206,31.667722"
340504,昆仑路与雨山西路交叉口东150米,马鞍山市,B022B0M4H1,31.671923,118.502317,双岗小区,"118.501034,31.672943_118.502029,31.672941_118.502166,31.672886_118.502168,31.672466_118.503419,31.672459_118.503422,31.672225_118.504103,31.672244_118.504103,31.671412_118.503576,31.671409_118.50287,31.671388_118.502859,31.671076_118.501035,31.671109_118.501034,31.672943"
340503,健康路,马鞍山市,B022B0M80C,31.706371,118.51593,同济花园,"118.514803,31.707402_118.51574,31.707361_118.515747,31.707493_118.517345,31.707367_118.517211,31.70625_118.517091,31.705101_118.51706,31.705076_118.514894,31.705555_118.514351,31.70567_118.514313,31.705732_118.514729,31.707383_118.514803,31.707402"
340506,南环路与辽河路交叉口东200米,马鞍山市,B0FFG3H17B,31.561179,118.831973,星河湾·名门世家1期,"118.832137,31.560135_118.832867,31.560253_118.832838,31.560487_118.832803,31.560745_118.833066,31.560793_118.832939,31.561433_118.831362,31.561138_118.831467,31.56064_118.832137,31.560135"
340504,向山镇名门世家,马鞍山市,B0FFJ68VIK,31.660169,118.593828,蓓蕾幼儿园,"118.593692,31.66034_118.59334,31.660129_118.593533,31.659963_118.593852,31.66017_118.593692,31.66034"
340503,安居路与师苑路交叉口西南150米,马鞍山市,B022B00O2F,31.667651,118.513566,名雅居(花园路),"118.51089,31.667053_118.51152,31.667058_118.511544,31.667437_118.512266,31.667559_118.512265,31.666904_118.516001,31.666879_118.516007,31.668303_118.5109,31.668371_118.51089,31.667053"
340523,"省道105与乡道033交叉口向东,洪魏村东侧",马鞍山市,B0FFGWILI6,31.766651,118.302371,中国石化西埠洪魏加油站,"118.302415,31.76688_118.302037,31.766694_118.302277,31.76639_118.302654,31.76659_118.302659,31.766711_118.302538,31.766844_118.302415,31.76688"
340504,杨庄路与石山路交叉口西北50米,马鞍山市,B0FFG0H8PX,31.664847,118.591696,向阳嘉园,"118.591783,31.66644_118.591603,31.666303_118.591478,31.666195_118.590949,31.665675_118.590482,31.665146_118.590228,31.66488_118.590227,31.663965_118.590561,31.663994_118.590967,31.663976_118.591299,31.66392_118.591614,31.663807_118.591815,31.663708_118.591942,31.663636_118.592055,31.66356_118.592371,31.663872_118.592951,31.664452_118.593205,31.66473_118.593238,31.664786_118.593254,31.664842_118.593236,31.664907_118.592815,31.665424_118.592472,31.665865_118.591981,31.666414_118.591839,31.666445_118.591783,31.66644"
340521,襄河湾社区对面,马鞍山市,B022B0MK86,31.575926,118.489566,君盛桃源,"118.488998,31.573679_118.488772,31.57366_118.48831,31.573637_118.488333,31.575672_118.48835,31.577538_118.488493,31.577761_118.48864,31.577892_118.490871,31.578066_118.490853,31.574501_118.49041,31.574242_118.490131,31.574083_118.489812,31.573927_118.489518,31.573811_118.489179,31.573716_118.488998,31.573679"
340521,河宾路,马鞍山市,B022B0M4FM,31.545767,118.499167,和合小区二村,"118.499996,31.55089_118.500551,31.55092_118.500594,31.55009_118.50065,31.549535_118.50065,31.548453_118.500669,31.547301_118.500624,31.545393_118.499481,31.545422_118.499476,31.545299_118.499945,31.545299_118.499921,31.545089_118.499564,31.545093_118.499577,31.544881_118.499079,31.544869_118.499079,31.544378_118.498977,31.544318_118.498258,31.544321_118.497665,31.54436_118.497729,31.545166_118.49848,31.545194_118.498472,31.545292_118.4984,31.545377_118.498357,31.545496_118.498403,31.546202_118.498467,31.546691_118.500583,31.546607_118.500578,31.547509_118.499451,31.547521_118.499435,31.548757_118.499441,31.549734_118.500125,31.549809_118.499996,31.55089"
340521,振兴路附近,马鞍山市,B0FFFO66AF,31.551852,118.499023,和合小区四村,"118.498369,31.551849_118.498289,31.551475_118.499614,31.551511_118.500176,31.551576_118.500509,31.551623_118.500441,31.552512_118.499651,31.552407_118.499822,31.551549_118.499578,31.551523_118.499503,31.55181_118.499441,31.552183_118.49844,31.552114_118.498442,31.551883_118.498369,31.551849"
340523,和州路与团塘路交叉口南50米,马鞍山市,B0FFG0K5PB,31.711052,118.351145,和州名城,"118.350573,31.71068_118.351719,31.710678_118.351706,31.711364_118.351608,31.711427_118.350597,31.711437_118.350573,31.71068"
340506,和平村附近,马鞍山市,B0FFGETTB2,31.578882,118.861594,马鞍山市博望中心学校和平小学,"118.862157,31.579057_118.862097,31.578759_118.861541,31.578728_118.861158,31.578698_118.861184,31.579218_118.862157,31.579057"
340503,采秣东路与采秣路交叉口东北100米,马鞍山市,B0FFGLMMD6,31.670864,118.526255,和泰公寓,"118.525691,31.670985_118.526829,31.67101_118.526829,31.67075_118.525691,31.670711_118.525691,31.670985"
340503,花园路616号,马鞍山市,B022B0MHP9,31.669439,118.525984,和泰国际,"118.524319,31.670256_118.52515,31.670265_118.525826,31.670402_118.52595,31.670507_118.526089,31.670539_118.52676,31.67059_118.526894,31.670558_118.527049,31.670466_118.527114,31.670348_118.527151,31.670233_118.527167,31.668681_118.527098,31.66859_118.527028,31.668558_118.525032,31.668124_118.524979,31.668197_118.525059,31.669498_118.525107,31.669777_118.52507,31.669823_118.524413,31.669809_118.5243,31.669855_118.524276,31.669896_118.524319,31.670256"
340504,安民街道雨山西路与红旗中路交叉口,马鞍山市,B022B0M4C6,31.672646,118.487484,咏春公寓,"118.486872,31.672782_118.486896,31.672778_118.486898,31.673041_118.486909,31.673058_118.487898,31.673023_118.488019,31.672998_118.488063,31.672973_118.488083,31.672946_118.488091,31.672915_118.488097,31.672298_118.488085,31.672276_118.488067,31.672265_118.488034,31.672262_118.487312,31.672232_118.487245,31.672288_118.486934,31.67229_118.48686,31.672387_118.486872,31.672782"
340504,安民街道红旗南路2004号,马鞍山市,B0FFGLM5LS,31.672243,118.488747,春天花园,"118.490391,31.672903_118.49041,31.672417_118.490935,31.672401_118.490957,31.671426_118.490195,31.67141_118.490203,31.670903_118.48861,31.670903_118.488564,31.670949_118.488554,31.670983_118.48854,31.672312_118.488556,31.672755_118.488575,31.672848_118.488607,31.672944_118.488645,31.67301_118.488672,31.673031_118.488763,31.673054_118.490388,31.673045_118.490391,31.672903"
340503,葛羊路西100米,马鞍山市,B022B00LIG,31.713899,118.518783,团结新村,"118.517805,31.713158_118.517445,31.713614_118.518695,31.714436_118.519047,31.714605_118.519355,31.714589_118.519983,31.713929_118.518993,31.713277_118.518666,31.713586_118.518709,31.713637_118.51858,31.713733_118.517805,31.713158"
340503,朱家岗小区,马鞍山市,B0FFG0RG4H,31.703718,118.503584,团结村,"118.502958,31.704107_118.504218,31.704144_118.504315,31.703291_118.504299,31.70328_118.503681,31.703252_118.503665,31.703248_118.503666,31.703216_118.503651,31.703208_118.503286,31.703207_118.503266,31.703601_118.502759,31.703572_118.502741,31.703581_118.502718,31.703966_118.502895,31.704097_118.502958,31.704107"
340503,团结路与沙塘路交叉口西南50米,马鞍山市,B022B00N6U,31.70386,118.502347,团结路市场,"118.502075,31.703564_118.502628,31.70357_118.5026,31.704074_118.502521,31.704136_118.502274,31.704251_118.502047,31.703943_118.502077,31.703936_118.502075,31.703564"
340503,团结路27号,马鞍山市,B022B00LK3,31.710793,118.507179,马鞍山市盐务管理局,"118.506865,31.711096_118.506723,31.711059_118.506926,31.7105_118.507387,31.710628_118.507491,31.71074_118.506971,31.711167_118.506865,31.711096"
340503,国际华城二村23栋302,马鞍山市,B022B0MI6Q,31.686332,118.531336,国际华城一村,"118.530713,31.688377_118.532432,31.688359_118.532585,31.688186_118.532526,31.684646_118.532349,31.684495_118.530131,31.684495_118.53002,31.684593_118.529955,31.685215_118.52997,31.685842_118.529987,31.68604_118.53008,31.686161_118.530071,31.686379_118.52997,31.686456_118.529985,31.687413_118.530101,31.687455_118.530749,31.687446_118.530713,31.688377"
340503,慈湖河路西50米,马鞍山市,B022B0MI8K,31.691437,118.531039,国际华城二村,"118.530131,31.69039_118.529497,31.690368_118.529498,31.691348_118.529407,31.691614_118.531154,31.692142_118.532481,31.692532_118.532579,31.692509_118.53261,31.692472_118.532642,31.692365_118.532634,31.691569_118.532605,31.691247_118.532534,31.691151_118.532076,31.691138_118.531545,31.69099_118.530952,31.690769_118.530432,31.690564_118.530289,31.690324_118.530131,31.69039"
340503,东晖路西侧(华城菜场南门旁),马鞍山市,B0FFG9DKZD,31.687202,118.528113,国际华城四村,"118.526794,31.686403_118.527223,31.686389_118.527599,31.686444_118.527971,31.686407_118.528124,31.686396_118.528508,31.686403_118.528551,31.686286_118.529519,31.686257_118.529581,31.68626_118.529569,31.686467_118.529633,31.686507_118.529649,31.686835_118.529582,31.686903_118.529404,31.686912_118.529409,31.687493_118.529637,31.687487_118.529622,31.688116_118.52839,31.688128_118.527914,31.688093_118.527431,31.687982_118.527076,31.687866_118.526809,31.68775_118.526536,31.687753_118.526457,31.687732_118.52643,31.687471_118.526441,31.686928_118.526501,31.686684_118.52661,31.686551_118.526794,31.686403"
340503,秀山大道北100米,马鞍山市,B0FFF2O2E0,31.692823,118.565854,圳秀国际金湖湾,"118.564176,31.692064_118.567354,31.69203_118.567491,31.692043_118.567598,31.692126_118.567636,31.692208_118.567596,31.693465_118.567531,31.693561_118.56741,31.693602_118.564248,31.693611_118.564149,31.693575_118.564103,31.693456_118.564074,31.692221_118.564077,31.692128_118.564176,31.692064"
340523,马历阳镇华阳社区龙潭中路146号,马鞍山市,B02350NZHT,31.717626,118.360866,城市嘉园,"118.361066,31.718984_118.362101,31.718761_118.361822,31.718104_118.361543,31.717684_118.361425,31.717205_118.361103,31.716347_118.360717,31.716201_118.360519,31.716224_118.359993,31.716525_118.360009,31.718423_118.360803,31.718391_118.361066,31.718984"
340503,慈湖北塘路,马鞍山市,B0FFHQ1P5B,31.731544,118.50487,塘岔社区,"118.505589,31.73336_118.505122,31.733301_118.504519,31.732431_118.503993,31.731056_118.503014,31.73072_118.502866,31.730584_118.502899,31.730061_118.502963,31.730036_118.503741,31.730456_118.503703,31.730531_118.504044,31.730707_118.504146,31.730581_118.504586,31.730663_118.504663,31.73049_118.50487,31.73012_118.505447,31.730424_118.505313,31.730638_118.505731,31.730855_118.50571,31.731008_118.506013,31.731083_118.505989,31.731266_118.506128,31.731309_118.505589,31.73336"
340521,黄池路,马鞍山市,B022B00J0R,31.560027,118.506296,塞纳·翡翠庄园,"118.50822,31.557913_118.508195,31.558099_118.508177,31.558337_118.508114,31.559191_118.508084,31.559191_118.508056,31.559413_118.50799,31.560064_118.50796,31.560267_118.508046,31.560703_118.508043,31.560833_118.507936,31.561035_118.507859,31.561328_118.507763,31.561967_118.507795,31.562204_118.507817,31.562469_118.507973,31.562953_118.50476,31.562902_118.504646,31.562893_118.504557,31.56284_118.504514,31.562772_118.504512,31.562673_118.504522,31.561881_118.504548,31.561134_118.504552,31.560254_118.504587,31.559552_118.504613,31.558964_118.504639,31.558418_118.504651,31.557172_118.508198,31.557262_118.50822,31.557913"
340523,富康路611号,马鞍山市,B02350NZHS,31.72526,118.353108,富贵苑,"118.354894,31.725337_118.354381,31.72533_118.354359,31.724945_118.35355,31.725065_118.353493,31.724869_118.353408,31.723999_118.352833,31.724003_118.352829,31.724039_118.352487,31.724124_118.352398,31.723846_118.351941,31.72396_118.351904,31.723995_118.351896,31.724048_118.35186,31.725573_118.351878,31.726131_118.352025,31.726223_118.354985,31.726128_118.354894,31.725337"
340506,沧波路西100米,马鞍山市,B022B0MH63,31.565461,118.840172,多蓝水岸,"118.837879,31.565024_118.838131,31.565063_118.838673,31.56485_118.839464,31.565033_118.839606,31.564967_118.840387,31.565111_118.840535,31.565049_118.840709,31.565061_118.841227,31.565109_118.841919,31.565321_118.842452,31.565589_118.842635,31.565746_118.842479,31.566066_118.84043,31.565874_118.837868,31.565573_118.83775,31.565449_118.837815,31.565038_118.837879,31.565024"
340506,多蓝水岸东,马鞍山市,B022B0MJVD,31.567017,118.845331,博望区人民医院,"118.844641,31.566965_118.844488,31.566966_118.844549,31.566476_118.845771,31.566569_118.845734,31.566828_118.845981,31.566845_118.846095,31.566942_118.84608,31.567233_118.845977,31.567235_118.845934,31.567629_118.845286,31.5676_118.844641,31.566965"
340503,花山湖南路与艳阳路交汇处,马鞍山市,B0FFF397GS,31.683177,118.507872,大华锦绣国际,"118.507166,31.683249_118.50784,31.683243_118.507837,31.683621_118.508371,31.683629_118.508366,31.682874_118.50717,31.682874_118.507166,31.683249"
340504,马红旗中路与青年路交叉口东150米,马鞍山市,B0FFFRWP27,31.678116,118.489809,大治村,"118.490001,31.679949_118.490252,31.679982_118.490471,31.679489_118.490675,31.679071_118.490792,31.678807_118.490842,31.6786_118.490828,31.678264_118.490816,31.678006_118.49073,31.677711_118.490685,31.677617_118.490655,31.677434_118.490651,31.677056_118.490651,31.676985_118.49065,31.676949_118.490615,31.676938_118.490521,31.676923_118.489699,31.676938_118.489208,31.676945_118.489199,31.676958_118.489208,31.677789_118.489192,31.677811_118.488499,31.677817_118.488488,31.677843_118.4885,31.678819_118.488507,31.678838_118.488528,31.678845_118.490305,31.678847_118.490394,31.678855_118.490347,31.679112_118.490298,31.679258_118.490199,31.679413_118.490109,31.679597_118.490038,31.679808_118.490001,31.679949"
340504,湖西北路400号,马鞍山市,B0FFF2XVS5,31.691515,118.497535,大湖西花园,"118.497206,31.690679_118.497584,31.690908_118.497535,31.691284_118.497248,31.691419_118.49698,31.691359_118.496629,31.6917_118.496924,31.691907_118.496527,31.692192_118.496334,31.692398_118.496328,31.69251_118.49713,31.692683_118.497951,31.691791_118.498233,31.691791_118.498254,31.691334_118.498565,31.691339_118.498616,31.6908_118.498155,31.690787_118.498147,31.690419_118.4976,31.690273_118.497206,31.690679"
340521,姑孰镇南寺中路D-25号,马鞍山市,B0FFG0NRAK,31.549901,118.489080,天井街-三村,"118.487632,31.550038_118.487591,31.549147_118.487616,31.549097_118.488117,31.548895_118.488249,31.549083_118.488943,31.548649_118.489104,31.548803_118.489141,31.548856_118.489161,31.548905_118.489168,31.549907_118.488847,31.549896_118.488833,31.550132_118.487673,31.550082_118.487632,31.550038"
340521,南寺中路97号附近,马鞍山市,B0FFG0JY42,31.549457,118.489775,天井街-二村,"118.489221,31.549008_118.490322,31.548958_118.490327,31.549591_118.490261,31.54959_118.490217,31.55_118.489238,31.549902_118.489221,31.549008"
340521,东大街与滨河路交叉口西北150米,马鞍山市,B0FFG0GL9O,31.548371,118.489794,天井街小区一村,"118.489016,31.548596_118.488253,31.549077_118.488119,31.548894_118.488857,31.548384_118.489382,31.548039_118.490203,31.547534_118.490444,31.547392_118.490544,31.547395_118.490643,31.547795_118.490664,31.548272_118.490627,31.548919_118.489243,31.548992_118.489149,31.54873_118.489016,31.548596"
340521,青莲西路522号附近,马鞍山市,B0FFG0N263,31.563728,118.489364,天娇园,"118.491022,31.564104_118.488061,31.564093_118.487984,31.564052_118.487984,31.563448_118.488131,31.563309_118.490338,31.5633_118.49036,31.563697_118.490406,31.56372_118.491017,31.563707_118.491022,31.564104"
340521,姑孰镇,马鞍山市,B022B0M4FN,31.565631,118.501363,天泽园小区,"118.500447,31.565928_118.50049,31.56595_118.502259,31.56588_118.502255,31.565647_118.502209,31.565634_118.502122,31.565634_118.501924,31.565549_118.501776,31.565455_118.501465,31.565024_118.501413,31.564969_118.501165,31.564959_118.501169,31.564877_118.500463,31.564846_118.500436,31.564857_118.500413,31.564893_118.500407,31.565896_118.500447,31.565928"
340504,湖东南路与九华路交叉口,马鞍山市,B022B00LFT,31.651474,118.511585,天泽水岸,"118.509999,31.650065_118.510005,31.650009_118.510049,31.649967_118.510099,31.649935_118.510164,31.649921_118.512831,31.649891_118.512893,31.649928_118.512925,31.649976_118.512941,31.650053_118.512938,31.653179_118.512893,31.653214_118.512847,31.653225_118.510905,31.653293_118.510825,31.653236_118.51081,31.653176_118.510806,31.653076_118.510878,31.652316_118.510106,31.652222_118.510068,31.651709_118.509999,31.650065"
340523,历阳镇龙潭北路,马鞍山市,B02350OA2G,31.735905,118.357459,天都新城北区,"118.356008,31.736945_118.355992,31.735058_118.359637,31.734953_118.359654,31.735431_118.35963,31.735471_118.359583,31.735489_118.359306,31.73556_118.359126,31.735625_118.35885,31.735777_118.35847,31.736074_118.358218,31.736337_118.35801,31.736647_118.357876,31.737229_118.356008,31.736945"
340523,历阳镇,马鞍山市,B02350O9ON,31.733772,118.357761,天都新城南区,"118.356003,31.73485_118.355977,31.73388_118.356003,31.733149_118.356344,31.733308_118.356472,31.733142_118.356716,31.733126_118.356757,31.733183_118.357079,31.733146_118.35707,31.732891_118.357213,31.731885_118.358286,31.73196_118.358339,31.733493_118.359731,31.733448_118.35979,31.734805_118.356027,31.734926_118.356003,31.73485"
340503,天门大道北段金玉兰花园,马鞍山市,B022B00LJ1,31.717097,118.50621,金玉兰花园,"118.504545,31.71585_118.505015,31.715698_118.505574,31.715663_118.506237,31.71582_118.506896,31.71621_118.507316,31.71676_118.507581,31.717247_118.507812,31.717696_118.507868,31.717694_118.508124,31.71806_118.508386,31.718622_118.507995,31.718731_118.507538,31.71832_118.507007,31.718705_118.506601,31.718493_118.506396,31.718604_118.505758,31.717918_118.50578,31.7179_118.505689,31.717798_118.505764,31.717736_118.505338,31.717274_118.505219,31.717355_118.504687,31.716793_118.50451,31.716901_118.503831,31.716308_118.504125,31.716091_118.504545,31.71585"
340503,花山华飞路88号,马鞍山市,B022B0M8ES,31.677175,118.507582,太古广场,"118.508293,31.677587_118.508316,31.676758_118.506857,31.676761_118.506867,31.677601_118.508293,31.677587"
340521,滨河路340号,马鞍山市,B0FFG25WW5,31.54819,118.505796,姑溪山水,"118.503837,31.549049_118.504464,31.549074_118.504477,31.548554_118.504984,31.548554_118.505013,31.547989_118.504775,31.547759_118.504432,31.547531_118.504064,31.547369_118.503746,31.547035_118.503421,31.546797_118.503151,31.546732_118.502478,31.547978_118.501127,31.547988_118.500952,31.547863_118.500988,31.54688_118.501059,31.546733_118.501458,31.546596_118.502435,31.546464_118.503615,31.546333_118.504277,31.546277_118.504605,31.54626_118.506461,31.546217_118.50837,31.546212_118.50891,31.546217_118.509038,31.546416_118.508301,31.550347_118.507648,31.550419_118.504704,31.550687_118.504576,31.550909_118.504305,31.550884_118.503913,31.550594_118.50385,31.550368_118.503814,31.549802_118.503837,31.549049"
340521,姑孰路与提署路交汇处,马鞍山市,B0FFG2820C,31.559486,118.485654,姑孰新城玫瑰园,"118.484958,31.55997_118.48506,31.558948_118.486347,31.559026_118.486277,31.559995_118.484958,31.55997"
340521,姑孰路与棉纺路交叉口西北150米,马鞍山市,B022B0MILI,31.562502,118.486874,姑孰新城里昂座,"118.486977,31.563096_118.487571,31.563083_118.487563,31.562511_118.487728,31.562514_118.48773,31.562344_118.487186,31.562351_118.487176,31.561931_118.486169,31.561961_118.48617,31.561995_118.486171,31.56212_118.486225,31.56217_118.486207,31.562298_118.486165,31.562872_118.486175,31.562877_118.486949,31.562876_118.486977,31.563096"
340521,姑孰路与棉纺路交叉口南150米,马鞍山市,B0FFG0P7MD,31.56073,118.486736,姑孰新城逸仙苑,"118.486102,31.561893_118.486741,31.561885_118.486763,31.561878_118.486783,31.561843_118.486749,31.561042_118.486771,31.561018_118.487007,31.561024_118.487012,31.560786_118.487721,31.560766_118.487701,31.560007_118.487684,31.559976_118.487643,31.559956_118.48761,31.559948_118.486308,31.559999_118.486076,31.560002_118.486102,31.561893"
340521,姑孰镇姑孰新城二村,马鞍山市,B022B00IOE,31.556909,118.48713,海棠苑,"118.487156,31.557791_118.487509,31.55778_118.487496,31.55748_118.48765,31.557479_118.4876,31.556212_118.487583,31.556196_118.486619,31.556199_118.48659,31.557465_118.486599,31.557487_118.487136,31.557489_118.487156,31.557791"
340521,棉纺路南100米,马鞍山市,B0FFGAIYIA,31.561463,118.4902,盛唐府,"118.489427,31.56195_118.489427,31.561003_118.489462,31.560997_118.490967,31.560969_118.490972,31.561936_118.489427,31.56195"
340521,提署路82附近,马鞍山市,B0FFGCC4EV,31.553204,118.499358,姑孰茗邸小区,"118.499862,31.554221_118.499848,31.553812_118.499321,31.553845_118.499327,31.554218_118.498464,31.554239_118.4984,31.554185_118.498266,31.552146_118.499414,31.552191_118.499398,31.552379_118.500535,31.552534_118.500481,31.554075_118.500272,31.55423_118.499862,31.554221"
340503,红旗北路东150米,马鞍山市,B0FFFRX1E8,31.714682,118.504904,宁芜村,"118.506807,31.715261_118.505444,31.713564_118.505315,31.7135_118.50479,31.713495_118.504387,31.713696_118.503749,31.714091_118.503347,31.714495_118.503167,31.715236_118.503593,31.715494_118.504642,31.715464_118.505289,31.715476_118.506458,31.715578_118.506807,31.715261"
340503,宁芜村(天门大道北段南),马鞍山市,B0FFF2N05F,31.715663,118.503983,宁芜路市场,"118.503948,31.71589_118.504273,31.715707_118.504306,31.715672_118.504307,31.71564_118.504303,31.71562_118.504281,31.715597_118.504263,31.715575_118.504259,31.715497_118.503721,31.715494_118.503705,31.71551_118.503701,31.715527_118.503705,31.715594_118.503748,31.715719_118.503809,31.715893_118.503948,31.71589"
340504,雨山西路497号,马鞍山市,B022B00N5N,31.672763,118.499956,安基大厦,"118.499444,31.672988_118.500478,31.672972_118.50047,31.672546_118.499442,31.672547_118.499444,31.672988"
340503,嘉陵江路178号,马鞍山市,B0FFG9BHSF,31.689984,118.55725,安粮城市广场,"118.559633,31.691798_118.559579,31.688268_118.559402,31.688131_118.557637,31.688144_118.55525,31.688172_118.554883,31.688389_118.554858,31.690093_118.554885,31.691536_118.554944,31.691686_118.555014,31.691732_118.555194,31.691805_118.55613,31.69181_118.557061,31.69181_118.559633,31.691798"
340503,湖东中路与雨山东路交叉口东南150米,马鞍山市,B0FFF38VT6,31.67244,118.511381,宝龙华庭,"118.512545,31.672962_118.510461,31.672971_118.510394,31.672946_118.510311,31.6729_118.510287,31.672887_118.510284,31.671942_118.510504,31.671889_118.510673,31.671837_118.511652,31.671868_118.51177,31.672028_118.512494,31.672012_118.512548,31.672056_118.512545,31.672962"
340503,师苑路与石岗路交叉口东南150米,马鞍山市,B022B00O7W,31.667788,118.521177,家和花园(石岗路),"118.520445,31.668256_118.520608,31.667034_118.520622,31.667025_118.520652,31.667022_118.520679,31.667026_118.521855,31.667376_118.521896,31.668482_118.521225,31.668341_118.520463,31.668311_118.520447,31.668302_118.520443,31.668286_118.520445,31.668256"
340521,205国道当涂长途汽车站北150米处,马鞍山市,B0FFFZO0PT,31.559253,118.478691,家天下,"118.477905,31.559972_118.479471,31.55992_118.479327,31.55845_118.478088,31.558554_118.478073,31.558899_118.477973,31.558898_118.477905,31.559972"
340523,马富康路288号,马鞍山市,B0235014TK,31.72818,118.362711,富城花园,"118.362642,31.726742_118.362694,31.726506_118.363259,31.726582_118.363236,31.726804_118.364137,31.726884_118.364106,31.727538_118.363946,31.727663_118.364056,31.727991_118.363986,31.728046_118.363967,31.728614_118.36406,31.728618_118.364058,31.729169_118.363902,31.729199_118.363891,31.729399_118.363261,31.729425_118.363191,31.729466_118.363135,31.729498_118.363087,31.729498_118.362816,31.729475_118.362511,31.730465_118.361885,31.730315_118.361985,31.729985_118.361664,31.729888_118.361896,31.72906_118.361854,31.728984_118.361695,31.728923_118.361739,31.728631_118.361737,31.728346_118.361699,31.728009_118.36159,31.727985_118.361515,31.727953_118.361503,31.727544_118.36129,31.727524_118.361233,31.726569_118.362642,31.726742"
340504,湖南路华东家私旁(马钢总公司对面),马鞍山市,B022B00LFJ,31.683749,118.489807,尚城国际,"118.489798,31.683359_118.490078,31.683348_118.490095,31.683795_118.489807,31.683808_118.489798,31.683359"
340504,湖南路与雨田路交叉口(红星中学旁),马鞍山市,B022B00LFE,31.683187,118.485203,尚景苑,"118.484317,31.682395_118.484805,31.68218_118.485064,31.682545_118.485301,31.682886_118.486138,31.684014_118.48611,31.684093_118.485499,31.684121_118.48541,31.684018_118.484627,31.682885_118.484317,31.682395"
340521,,马鞍山市,B0FFI6O7OI,31.508732,118.479396,尚海城,"118.478686,31.50972_118.478203,31.508096_118.480022,31.507758_118.480116,31.507867_118.480553,31.509169_118.480727,31.509313_118.478686,31.50972"
340504,雨山西路118号,马鞍山市,B0FFGLM5KY,31.673775,118.49173,山南小区,"118.489568,31.673709_118.490601,31.673712_118.490616,31.674032_118.490903,31.674246_118.492155,31.674254_118.492345,31.67418_118.493242,31.674195_118.493283,31.674121_118.493311,31.674036_118.493326,31.673951_118.493337,31.673865_118.493302,31.673443_118.493283,31.673417_118.493256,31.6734_118.493223,31.67339_118.493185,31.673387_118.489638,31.673414_118.489595,31.673428_118.489572,31.673462_118.489568,31.673709"
340504,湖西中路1586号,马鞍山市,B022B00NCW,31.683215,118.498732,山埠村,"118.498413,31.68376_118.498599,31.683769_118.498618,31.68387_118.499226,31.683859_118.499247,31.68339_118.499267,31.683032_118.499255,31.682719_118.499187,31.682678_118.498111,31.682674_118.498103,31.683376_118.4984,31.68337_118.498413,31.68376"
340503,葛羊路山明水秀家园1栋12号(小区北大门左侧),马鞍山市,B022B0MDW7,31.709198,118.518796,山明水秀3期,"118.518147,31.709117_118.51909,31.70887_118.519503,31.709577_118.51889,31.709769_118.51842,31.709417_118.518143,31.70922_118.518147,31.709117"
340503,园桥路与康城路交叉口东南200米,马鞍山市,B0FFFBYJ6R,31.710608,118.517970,山明水秀家园2期,"118.518388,31.711418_118.517627,31.710797_118.518512,31.709643_118.519555,31.710243_118.518871,31.711176_118.518388,31.711418"
340523,石杨镇碧桂园,马鞍山市,B0FFFADVAH,31.894983,118.267443,碧桂园如山湖凤凰酒店,"118.269662,31.896708_118.26961,31.896744_118.269558,31.896769_118.267661,31.896479_118.267552,31.896404_118.26724,31.895716_118.266237,31.896336_118.26584,31.895931_118.265355,31.895379_118.265072,31.894956_118.264821,31.894491_118.264687,31.894147_118.265371,31.893916_118.266779,31.893569_118.268123,31.893221_118.268313,31.893231_118.268414,31.893257_118.268457,31.893289_118.268498,31.893321_118.268686,31.893653_118.268891,31.894165_118.269155,31.894551_118.269365,31.894878_118.269433,31.895078_118.269586,31.895652_118.269773,31.896277_118.269768,31.89633_118.269815,31.896354_118.269729,31.896598_118.269662,31.896708"
340521,振兴北路,马鞍山市,B0FFG4SA72,31.576477,118.498418,山鹰双城汇,"118.497089,31.578432_118.497099,31.574895_118.499508,31.574264_118.499744,31.574484_118.499605,31.578259_118.499411,31.57845_118.497089,31.578432"
340503,解放路63,马鞍山市,B0FFFWSA9Q,31.706699,118.50618,巴黎国际广场,"118.505756,31.707263_118.505968,31.707377_118.506507,31.70672_118.506952,31.7063_118.505842,31.706286_118.505756,31.707263"
340503,康乐路,马鞍山市,B022B00NYI,31.669541,118.515973,师苑新村(安居路),"118.51451,31.668449_118.51767,31.668458_118.517646,31.670232_118.517485,31.670363_118.515753,31.670733_118.514572,31.670787_118.514425,31.670696_118.514398,31.668573_118.51451,31.668449"
340504,常青路与育才路交叉口西北150米,马鞍山市,B022B00KVS,31.690121,118.494439,平塘花园,"118.493822,31.689416_118.493801,31.689426_118.493789,31.689444_118.493787,31.689464_118.493782,31.690277_118.493878,31.690447_118.493882,31.690469_118.493885,31.690499_118.493885,31.690861_118.493899,31.690882_118.493921,31.69089_118.49462,31.690887_118.494636,31.690872_118.494637,31.690857_118.494646,31.690568_118.495024,31.690573_118.495044,31.690566_118.495057,31.690557_118.495067,31.69054_118.495068,31.690518_118.495056,31.689484_118.495048,31.689456_118.495034,31.689441_118.495022,31.689428_118.495006,31.689421_118.494971,31.689417_118.493822,31.689416"
340504,经济技术开发区,马鞍山市,B022B0M80I,31.639214,118.513737,东湖佳苑,"118.51338,31.638461_118.514131,31.638437_118.514107,31.639754_118.51398,31.639754_118.51399,31.640019_118.513365,31.64002_118.51338,31.638461"
340503,师苑路附近,马鞍山市,B0FFFS4374,31.669335,118.512745,平山新村,"118.510975,31.668461_118.511007,31.669527_118.51156,31.669532_118.511581,31.670408_118.512595,31.670413_118.512703,31.669915_118.513416,31.669922_118.513851,31.670497_118.514296,31.670525_118.514317,31.668479_118.510975,31.668461"
340522,,马鞍山市,B0FFISCX1Q,31.710507,118.097505,幸福家园A区,"118.096113,31.709378_118.097276,31.709416_118.099384,31.709418_118.099124,31.710753_118.09892,31.711536_118.09734,31.711625_118.096048,31.711611_118.09553,31.711552_118.095538,31.711193_118.095881,31.711196_118.095885,31.7101_118.095997,31.709891_118.096099,31.709815_118.096113,31.709378"
340522,太湖山路西200米,马鞍山市,B0FFIS7FDF,31.70855,118.098678,幸福家园B区,"118.097799,31.709152_118.099465,31.709147_118.099551,31.707943_118.097864,31.707945_118.097912,31.708896_118.097703,31.708894_118.097697,31.709081_118.097799,31.709152"
340504,佳山乡雨韵阁9栋,马鞍山市,B0FFFRR28J,31.657464,118.534712,幸福花园幼儿园,"118.53427,31.657741_118.535241,31.657725_118.535267,31.657666_118.535074,31.657288_118.534934,31.657159_118.534832,31.657154_118.534281,31.657166_118.53427,31.657741"
340503,孟塘路与幸福路交叉口东南50米,马鞍山市,B022B0MI7C,31.716336,118.497181,幸福路117号大院,"118.496254,31.716721_118.496329,31.716085_118.49883,31.715845_118.499957,31.715734_118.500542,31.71563_118.500973,31.715512_118.501089,31.715902_118.50082,31.715972_118.500874,31.716153_118.498484,31.716679_118.498379,31.716262_118.497943,31.716363_118.498061,31.716785_118.496336,31.717159_118.496254,31.716721"
340503,康乐路16栋-4号,马鞍山市,B022B00O7U,31.667726,118.51918,康乐家园(花园路),"118.518039,31.666853_118.520398,31.666842_118.520462,31.666843_118.52048,31.666851_118.520489,31.666863_118.520496,31.666879_118.520501,31.666912_118.520336,31.668203_118.520285,31.668622_118.520273,31.668648_118.520264,31.668655_118.520246,31.668662_118.520211,31.668665_118.518213,31.668674_118.518192,31.668665_118.518189,31.66865_118.518186,31.668323_118.518184,31.668308_118.518173,31.668301_118.518048,31.668299_118.518039,31.668299_118.518005,31.668285_118.517969,31.668265_118.517942,31.668235_118.517927,31.668204_118.517918,31.668179_118.517917,31.66815_118.517898,31.666965_118.517911,31.666919_118.517926,31.666892_118.51796,31.666871_118.518001,31.666856_118.518039,31.666853"
340503,湖东中路与采秣路交叉口东150米,马鞍山市,B022B00NQW,31.671339,118.51141,康嘉大景城北区,"118.510522,31.671799_118.510498,31.670911_118.512377,31.670917_118.512434,31.670971_118.512446,31.67106_118.51213,31.671787_118.510522,31.671799"
340503,湖东中路与采秣路交叉口东南100米,马鞍山市,B022B00NYQ,31.670237,118.51082,康嘉大景城南区,"118.512543,31.670724_118.51256,31.670694_118.512559,31.670492_118.511235,31.670497_118.511163,31.670493_118.511128,31.669806_118.511129,31.66975_118.510493,31.669767_118.510488,31.670708_118.512543,31.670724"
340503,石岗路与采秣路交叉口东南150米,马鞍山市,B022B00O6A,31.669441,118.521748,康嘉花园,"118.520289,31.670259_118.520236,31.670197_118.520218,31.670072_118.520418,31.668473_118.520436,31.668441_118.520476,31.668407_118.520539,31.668403_118.521069,31.66841_118.521296,31.668473_118.521615,31.668569_118.521764,31.668603_118.522431,31.668623_118.523124,31.668635_118.523187,31.668654_118.52323,31.668683_118.523265,31.668728_118.523295,31.670107_118.523289,31.670175_118.523269,31.670222_118.523196,31.670276_118.523107,31.670305_118.521191,31.670337_118.520476,31.670318_118.520357,31.670299_118.520289,31.670259"
340503,萧林路139号,马鞍山市,B022B0M4EN,31.706138,118.518307,康城花园(健康路),"118.517447,31.707376_118.517245,31.705055_118.517249,31.705038_118.517263,31.705027_118.519222,31.704936_118.519234,31.70494_118.519241,31.704955_118.519243,31.70621_118.519247,31.706296_118.51926,31.706361_118.519407,31.706711_118.519321,31.706758_118.519337,31.707217_118.519326,31.707235_118.519302,31.70724_118.517447,31.707376"
340504,湖西南路604号,马鞍山市,B022B00KVZ,31.665124,118.50083,康泰佳苑(印山西路),"118.498456,31.666806_118.503394,31.666755_118.503427,31.666753_118.503436,31.666744_118.50344,31.666727_118.503451,31.66563_118.503423,31.664153_118.50342,31.663647_118.503409,31.663582_118.503365,31.663468_118.503356,31.663451_118.503337,31.663443_118.501973,31.66344_118.501513,31.66346_118.499857,31.663483_118.498781,31.663449_118.49854,31.663456_118.498308,31.663533_118.498266,31.663624_118.498234,31.663696_118.498226,31.663739_118.49822,31.666642_118.498241,31.666722_118.49827,31.666761_118.498292,31.666782_118.498322,31.666799_118.498373,31.666808_118.498456,31.666806"
340521,振兴北路与釜山路交汇处,马鞍山市,B0FFG4R9F6,31.574878,118.504319,冠景御澜湾,"118.503346,31.574032_118.503891,31.574001_118.504262,31.573874_118.50459,31.573762_118.504704,31.573734_118.504802,31.573731_118.504881,31.573756_118.50495,31.57379_118.505022,31.573873_118.505539,31.57493_118.505542,31.574987_118.505523,31.575091_118.505467,31.575202_118.504812,31.575828_118.504672,31.575881_118.504399,31.575887_118.50384,31.575882_118.503278,31.575874_118.503346,31.574032"
340503,恒兴路与马钢大道交叉口西北50米,马鞍山市,B0FFF3WY6W,31.717395,118.486694,彭山新村,"118.489619,31.716838_118.489762,31.716758_118.489808,31.716715_118.48981,31.716672_118.489782,31.716644_118.489737,31.716616_118.489561,31.716563_118.487324,31.71616_118.48718,31.716116_118.486889,31.716182_118.484104,31.718035_118.484843,31.719008_118.489619,31.716838"
340503,向山镇马向路666号御景园,马鞍山市,B022B00LIY,31.668823,118.567674,御景园·香山红郡,"118.565932,31.672958_118.566213,31.673054_118.566278,31.67304_118.567096,31.672734_118.56797,31.672435_118.569287,31.672004_118.570054,31.671748_118.570387,31.671586_118.570408,31.671422_118.570395,31.671118_118.570448,31.670952_118.570942,31.670568_118.571309,31.670159_118.571621,31.669815_118.571806,31.669678_118.571832,31.669618_118.571832,31.669557_118.571672,31.669045_118.57135,31.668192_118.571178,31.667913_118.571001,31.667767_118.570974,31.667653_118.571033,31.667374_118.571017,31.667297_118.570926,31.667192_118.570819,31.667105_118.570658,31.667023_118.570422,31.667032_118.570223,31.667068_118.570153,31.667064_118.569901,31.666881_118.569832,31.666868_118.569778,31.666895_118.569145,31.667493_118.569021,31.667498_118.56892,31.667489_118.568812,31.667411_118.568592,31.667164_118.568136,31.666927_118.567648,31.666539_118.567337,31.666164_118.567235,31.665936_118.567139,31.665466_118.567106,31.665283_118.56705,31.665244_118.564985,31.665409_118.563201,31.665639_118.563139,31.665722_118.563121,31.665836_118.563126,31.665932_118.563145,31.665973_118.563196,31.666016_118.563437,31.666151_118.563617,31.666959_118.563467,31.667014_118.563746,31.667655_118.563909,31.668205_118.563987,31.668475_118.564043,31.668511_118.564298,31.668534_118.564808,31.668511_118.565366,31.668424_118.565427,31.668386_118.565494,31.668292_118.565489,31.668157_118.565524,31.668105_118.565569,31.668098_118.566288,31.668214_118.566318,31.668269_118.566358,31.668593_118.566211,31.668728_118.566205,31.668883_118.566235,31.669027_118.566302,31.669089_118.566632,31.669226_118.567356,31.669461_118.567372,31.669523_118.567329,31.66994_118.567039,31.670118_118.566849,31.670253_118.566602,31.670815_118.566481,31.671127_118.566033,31.671586_118.565704,31.671965_118.565569,31.672383_118.565816,31.672689_118.565961,31.672757_118.565932,31.672958"
340504,常青路与西苑路交叉口西南100米,马鞍山市,B022B004C5,31.687172,118.49441,怡心花园,"118.493424,31.687296_118.493963,31.687295_118.493978,31.687286_118.493986,31.687269_118.493979,31.686696_118.495031,31.686689_118.495063,31.686692_118.495075,31.686706_118.495079,31.686721_118.495059,31.687515_118.495053,31.687537_118.495033,31.687562_118.495014,31.687566_118.493475,31.687577_118.493455,31.687572_118.49344,31.68757_118.493429,31.687554_118.493429,31.687534_118.493424,31.687296"
340503,健康路11号,马鞍山市,B0FFF2H75A,31.704420,118.528910,怡景苑小区,"118.528536,31.703382_118.529232,31.703356_118.529688,31.703365_118.529704,31.704495_118.529036,31.704471_118.528392,31.704441_118.528536,31.703382"
340503,旅游大道与汇秀路交叉口东南,马鞍山市,B0FFF6WJWI,31.69587,118.565684,恒大御景湾,"118.567172,31.697728_118.567353,31.697391_118.567347,31.694493_118.567093,31.694498_118.567083,31.694432_118.566946,31.694432_118.566951,31.693998_118.567068,31.693996_118.567071,31.69377_118.564306,31.693764_118.564118,31.693894_118.564147,31.698015_118.564233,31.698112_118.567172,31.697728"
340503,湖南东路与霍里山大道交叉口东北角(奥体中心对面),马鞍山市,B0FFHFEK0X,31.686418,118.556117,恒大绿洲,"118.557156,31.687811_118.554898,31.687797_118.554881,31.685547_118.555954,31.685492_118.555944,31.684753_118.557194,31.684721_118.557156,31.687811"
340503,马旅游大道与霍里山大道交叉口东北,马鞍山市,B0FFG4QT7C,31.700961,118.556387,恒生秀山郡,"118.554929,31.702393_118.554918,31.69986_118.555063,31.699723_118.555138,31.699828_118.555213,31.699835_118.555334,31.699787_118.555323,31.699753_118.555406,31.699714_118.55543,31.69975_118.55609,31.699481_118.556511,31.699356_118.556675,31.699294_118.556989,31.699207_118.557407,31.699127_118.55745,31.699239_118.55748,31.699337_118.55741,31.699356_118.557399,31.699436_118.557514,31.699534_118.557767,31.700803_118.557893,31.701768_118.557984,31.702277_118.557823,31.702336_118.556374,31.702373_118.556187,31.70245_118.554929,31.702393"
340503,旅游大道与霍里山大道交叉口,马鞍山市,B0FFJEHN6G,31.700021,118.559182,恒生秀山郡东区,"118.558143,31.700976_118.558352,31.700967_118.559795,31.701158_118.560329,31.701131_118.560264,31.699367_118.559879,31.698854_118.558035,31.699052_118.557979,31.699938_118.558143,31.700976"
340521,振兴中路与提署路交汇处,马鞍山市,B0FFF53YGI,31.556021,118.502923,恒生阳光城,"118.501771,31.558494_118.50176,31.555619_118.502265,31.555139_118.502254,31.554549_118.503724,31.554517_118.503885,31.554929_118.504158,31.55492_118.5044,31.555541_118.504491,31.555797_118.504534,31.556094_118.504545,31.556524_118.502399,31.556533_118.50234,31.558512_118.501771,31.558494"
340503,慈湖河路1118号,马鞍山市,B0FFF0BUIS,31.674299,118.533748,悦城景苑,"118.533045,31.674228_118.533045,31.673851_118.53321,31.673817_118.53457,31.674497_118.534346,31.674797_118.533262,31.674283_118.533045,31.674228"
340503,慈湖河路与花山路交叉口北100米,马鞍山市,B0FFFRRD6Y,31.674981,118.533494,慈湖河小区,"118.533144,31.675534_118.533019,31.675529_118.533007,31.674687_118.533022,31.674326_118.533046,31.674279_118.533077,31.674263_118.533109,31.674255_118.533255,31.674302_118.533763,31.67453_118.534274,31.674802_118.53393,31.675273_118.533645,31.675626_118.53357,31.675681_118.533523,31.675687_118.533462,31.675732_118.533144,31.675534"
340503,,马鞍山市,B0FFGKP0AL,31.713146,118.5567,慈馨家园,"118.556192,31.714496_118.557099,31.714496_118.557085,31.713755_118.557933,31.713752_118.557944,31.712237_118.556007,31.712201_118.556018,31.712427_118.555264,31.712431_118.555283,31.713447_118.556184,31.713442_118.556192,31.714496"
340503,慈湖河路与湖南东路交叉口西150米,马鞍山市,B022B0MDER,31.683456,118.531907,拉菲公馆,"118.531216,31.682755_118.532589,31.682764_118.53263,31.683954_118.532514,31.684105_118.532422,31.684149_118.531217,31.684162_118.531216,31.682755"
340503,北塘路11-106号附近,马鞍山市,B022B0M4CD,31.728821,118.504389,新塘小区(北塘路),"118.505073,31.729392_118.504816,31.729793_118.503468,31.729126_118.503028,31.728743_118.5031,31.728556_118.503563,31.72858_118.50392,31.728748_118.50409,31.728518_118.504055,31.728439_118.504027,31.728377_118.504207,31.728141_118.504474,31.727774_118.50528,31.728185_118.505277,31.728228_118.504836,31.72888_118.50526,31.729092_118.505399,31.729169_118.505187,31.729456_118.505073,31.729392"
340504,红旗南路与印山路口北侧,马鞍山市,B0FFF0BUE7,31.66622,118.486854,新安花园,"118.485894,31.666653_118.487821,31.666664_118.487814,31.665785_118.485881,31.66578_118.485894,31.666653"
340504,安民路与雨田路交叉口南150米,马鞍山市,B0FFF29FLJ,31.666546,118.484762,新安花园西区,"118.484425,31.667534_118.484441,31.667564_118.484795,31.667557_118.48482,31.666691_118.48523,31.666695_118.485238,31.666016_118.485187,31.665991_118.48519,31.66582_118.484487,31.66584_118.484441,31.665895_118.484433,31.666251_118.484425,31.667534"
340521,湖西路与釜山路交叉口,马鞍山市,B0FFIMOX2I,31.580243,118.497877,新宸金悦府,"118.499185,31.579075_118.49902,31.578927_118.496561,31.578966_118.496588,31.58043_118.496526,31.580429_118.496582,31.581536_118.499187,31.581533_118.499185,31.579075"
340503,佳山路与梨园路交汇处西100米,马鞍山市,B022B00N36,31.676311,118.51496,新岗四村,"118.514397,31.676797_118.514388,31.677165_118.514401,31.677176_118.514416,31.677178_118.515475,31.677179_118.515497,31.677173_118.515514,31.677157_118.515517,31.677129_118.515537,31.675491_118.515533,31.675471_118.515517,31.675461_118.515481,31.675452_118.515461,31.675452_118.514439,31.675446_118.514417,31.675448_118.514401,31.675458_118.514393,31.675473_118.514397,31.676797"
340503,雨山东路932号,马鞍山市,B022B004CA,31.675531,118.513651,新岗小区,"118.512855,31.677414_118.51286,31.676448_118.513351,31.676453_118.513346,31.67564_118.513041,31.675451_118.513063,31.675136_118.513143,31.675071_118.513072,31.674809_118.513091,31.673413_118.514278,31.673419_118.514279,31.677211_118.513679,31.677408_118.512855,31.677414"
340503,幸福路与新工房路交叉口北100米,马鞍山市,B0FFGLM5VN,31.722582,118.488721,新工房小区,"118.488244,31.723016_118.488333,31.723015_118.488313,31.721717_118.488856,31.721718_118.488852,31.72183_118.489283,31.721834_118.489279,31.721917_118.489295,31.721931_118.489255,31.722269_118.489216,31.722792_118.489178,31.722853_118.489045,31.723015_118.489043,31.72324_118.48877,31.723243_118.488744,31.723327_118.488742,31.723574_118.488223,31.723577_118.488244,31.723016"
340503,湖南东路与霍里山大道交叉口西150米,马鞍山市,B0FFFZFKQ9,31.684481,118.553173,新里·维多利亚公馆,"118.551695,31.684527_118.551709,31.684449_118.551781,31.684386_118.554356,31.684367_118.554426,31.684394_118.554509,31.684449_118.554584,31.684565_118.554589,31.685857_118.551692,31.685889_118.551695,31.684527"
340503,霍里街道湖南东路绿地世纪城西200米,马鞍山市,B0FFFZFKDK,31.686226,118.549908,新里西斯莱公馆,"118.548308,31.687468_118.54836,31.686456_118.548389,31.686002_118.548426,31.685307_118.548436,31.685284_118.548456,31.685269_118.548489,31.685264_118.549263,31.685251_118.549267,31.684729_118.549258,31.684715_118.54925,31.684707_118.549224,31.684701_118.54844,31.684702_118.548419,31.684698_118.548405,31.684691_118.548395,31.68468_118.548391,31.684663_118.54839,31.68465_118.548399,31.6845_118.548407,31.684486_118.548419,31.684478_118.548445,31.684469_118.548474,31.684466_118.549907,31.684436_118.549979,31.684474_118.551263,31.684472_118.551283,31.684477_118.551293,31.684486_118.551304,31.684505_118.551342,31.684577_118.55135,31.684617_118.551359,31.685633_118.551354,31.686604_118.551343,31.687455_118.551332,31.687711_118.551251,31.687826_118.551208,31.687836_118.551141,31.687846_118.551075,31.687854_118.548414,31.687852_118.548378,31.687846_118.548345,31.687828_118.548319,31.687808_118.548306,31.687788_118.5483,31.687764_118.548296,31.687739_118.548308,31.687468"
340503,幸福路与新风路交叉口北100米,马鞍山市,B022B0M8W3,31.722729,118.490964,新风小区,"118.489057,31.723019_118.489226,31.72281_118.489261,31.722283_118.489301,31.721929_118.489286,31.721907_118.489313,31.721745_118.489946,31.72175_118.489933,31.721465_118.490202,31.721441_118.490557,31.721377_118.491169,31.72118_118.492469,31.720671_118.492541,31.720668_118.49259,31.720684_118.492637,31.720715_118.492797,31.721023_118.492772,31.721876_118.492876,31.721918_118.492905,31.721976_118.49286,31.722153_118.492979,31.722192_118.49298,31.722409_118.492981,31.722581_118.492945,31.722736_118.493063,31.72289_118.492915,31.723135_118.492788,31.723377_118.492462,31.723383_118.492436,31.723571_118.491862,31.723543_118.491821,31.723546_118.491781,31.723552_118.491766,31.723712_118.491687,31.724132_118.491648,31.724476_118.491644,31.724676_118.491078,31.724668_118.490678,31.724642_118.490681,31.724493_118.490499,31.724468_118.490339,31.724447_118.490339,31.723791_118.489641,31.723713_118.489626,31.723826_118.489112,31.723826_118.489093,31.72401_118.489051,31.724031_118.488691,31.724061_118.488694,31.724261_118.488741,31.724302_118.488926,31.724347_118.488906,31.72444_118.488128,31.724347_118.488142,31.724139_118.488111,31.72414_118.488154,31.723587_118.489045,31.723576_118.489057,31.723019"
340522,望梅路与华阳东路交汇处,马鞍山市,B0FFG6JXAB,31.725956,118.113392,时代嘉园,"118.112555,31.726075_118.114038,31.727197_118.114972,31.726376_118.115315,31.726554_118.116147,31.726257_118.116206,31.725993_118.113577,31.724726_118.113395,31.72474_118.11252,31.725929_118.112555,31.726075"
340521,青莲路,马鞍山市,B022B00KQB,31.56252,118.489704,明月轩小区,"118.4917,31.562951_118.488559,31.563077_118.488162,31.563084_118.488052,31.563027_118.488012,31.562976_118.487966,31.562901_118.487942,31.562771_118.48794,31.561964_118.487958,31.561932_118.488015,31.561916_118.489501,31.562019_118.491008,31.562016_118.490997,31.562131_118.491558,31.562188_118.491606,31.562208_118.491644,31.562227_118.491665,31.562238_118.4917,31.562951"
340503,佳山路与菊园路交叉口,马鞍山市,B022B0MHEB,31.679534,118.516416,明都财富广场,"118.515851,31.680111_118.516907,31.680116_118.516907,31.679367_118.517074,31.679367_118.517084,31.67897_118.515853,31.679016_118.515851,31.680111"
340521,姑孰路1157附近,马鞍山市,B0FFG9D7Z0,31.579072,118.489504,星马花园,"118.488925,31.579779_118.490389,31.579751_118.490349,31.578595_118.490177,31.578488_118.489383,31.578497_118.489378,31.578355_118.488689,31.578325_118.488528,31.578563_118.488925,31.579779"
340504,红旗南路东200米,马鞍山市,B0FFI8FA96,31.658045,118.490673,映翠景苑,"118.488673,31.658504_118.488652,31.658397_118.488638,31.658316_118.488643,31.658034_118.48864,31.657809_118.488894,31.657813_118.489271,31.65781_118.489318,31.657863_118.489684,31.65779_118.490075,31.657718_118.490479,31.657638_118.490758,31.657596_118.490934,31.657557_118.491324,31.657482_118.491752,31.657482_118.492166,31.65748_118.492382,31.657483_118.492382,31.657504_118.492475,31.657516_118.492445,31.657813_118.492429,31.657956_118.492334,31.658164_118.492245,31.658462_118.488673,31.658504"
340504,红旗南路西50米,马鞍山市,B0FFH20D48,31.657005,118.487509,映翠花园一村,"118.486623,31.655925_118.486878,31.656224_118.486822,31.656318_118.486816,31.656432_118.487103,31.656658_118.487133,31.656793_118.487106,31.656866_118.487034,31.656888_118.486787,31.657937_118.487403,31.658162_118.487506,31.658179_118.487508,31.657952_118.488174,31.657954_118.488176,31.656713_118.488188,31.656198_118.487779,31.656208_118.487777,31.655926_118.486623,31.655925"
340504,雨田路东150米,马鞍山市,B022B00MKQ,31.661481,118.485449,映翠花园三村,"118.484845,31.662751_118.484746,31.662748_118.484712,31.661632_118.485173,31.661607_118.485133,31.661249_118.48508,31.661099_118.484984,31.661004_118.484745,31.660991_118.4847,31.659366_118.485642,31.659361_118.485695,31.660183_118.485601,31.660414_118.485599,31.66067_118.486197,31.660699_118.486234,31.661955_118.486315,31.662567_118.486288,31.663206_118.484824,31.663199_118.484845,31.662751"
340504,东湖路与雨田路交叉口,马鞍山市,B022B00MRW,31.658342,118.485437,映翠花园二村,"118.484392,31.65924_118.484391,31.657826_118.484417,31.657533_118.484461,31.657499_118.484484,31.657491_118.484529,31.657488_118.486304,31.657987_118.486409,31.658033_118.48644,31.658053_118.486451,31.65814_118.486047,31.659104_118.48597,31.659121_118.485081,31.659237_118.484392,31.65924"
340504,红旗中路西50米,马鞍山市,B0FFF2CCO0,31.660447,118.48691,映翠花园四村,"118.487111,31.662264_118.487789,31.662255_118.487781,31.659135_118.487303,31.659137_118.487292,31.658956_118.487194,31.658953_118.48719,31.658771_118.486393,31.658528_118.486122,31.659192_118.486063,31.659606_118.486015,31.659779_118.485924,31.659934_118.485834,31.66_118.485798,31.660157_118.485615,31.660413_118.485622,31.660611_118.486215,31.660627_118.486259,31.662017_118.487064,31.66209_118.487111,31.662264"
340504,印山东路,马鞍山市,B022B00NI2,31.661085,118.526166,格林春天(东湖路),"118.527691,31.663066_118.527899,31.663039_118.527984,31.662989_118.528042,31.66293_118.528066,31.662854_118.528077,31.659625_118.527996,31.659531_118.527919,31.659482_118.527788,31.65945_118.52401,31.65948_118.523911,31.659509_118.523828,31.659569_118.52382,31.661678_118.525362,31.661685_118.52533,31.663048_118.527691,31.663066"
340504,佳山乡印山东路692号,马鞍山市,B022B0M8ZN,31.66624,118.530365,春晖家园东区,"118.531696,31.669137_118.528332,31.668557_118.528526,31.667667_118.527785,31.667491_118.527783,31.667447_118.527783,31.667416_118.528163,31.666242_118.528252,31.665952_118.528303,31.665108_118.528308,31.663825_118.529212,31.663825_118.529218,31.66369_118.53121,31.663656_118.532299,31.663651_118.532318,31.663706_118.532468,31.663704_118.532501,31.664815_118.532498,31.665831_118.532519,31.666909_118.532546,31.668199_118.531846,31.668217_118.531696,31.669137"
340504,江东大道中段与印山东路交口东北,马鞍山市,B022B0M8U3,31.665908,118.525394,春晖家园西区,"118.526273,31.663509_118.526236,31.665807_118.527027,31.665811_118.527012,31.66634_118.527787,31.666496_118.527401,31.667725_118.526075,31.667431_118.525451,31.667408_118.525274,31.667961_118.524082,31.667737_118.523806,31.667499_118.523891,31.664006_118.524813,31.663903_118.525171,31.663885_118.525168,31.663486_118.526273,31.663509"
340504,东方翡翠29-7,马鞍山市,B022B0MI7Z,31.661988,118.531324,春江雅苑,"118.530455,31.660995_118.532069,31.661006_118.532116,31.661013_118.532157,31.66104_118.532213,31.662013_118.532236,31.662547_118.532186,31.662596_118.532142,31.6626_118.532158,31.662968_118.530469,31.662985_118.530455,31.660995"
340504,平山路,马鞍山市,B022B00KMF,31.642025,118.512405,晨光花园,"118.510731,31.643609_118.510621,31.643604_118.510455,31.643418_118.510472,31.640654_118.510613,31.640646_118.51061,31.640226_118.51281,31.640193_118.514162,31.640188_118.514226,31.640202_118.514253,31.640234_118.514285,31.64028_118.514331,31.643706_118.514164,31.643836_118.510734,31.643852_118.510731,31.643609"
340521,东营路,马鞍山市,B022B00O3K,31.56812,118.49386,景园,"118.49487,31.569019_118.494852,31.567849_118.494822,31.567806_118.494638,31.567678_118.493802,31.567048_118.493752,31.56704_118.493702,31.567039_118.492968,31.567052_118.493042,31.568907_118.49318,31.56903_118.49487,31.569019"
340503,曙光路80-7号附近,马鞍山市,B0FFF2NJOH,31.730108,118.508736,曙光新村(曙光路),"118.509356,31.729641_118.508829,31.729413_118.508554,31.729851_118.508127,31.730579_118.508631,31.730815_118.509356,31.729641"
340503,槐南路,马鞍山市,B022B0M4H8,31.678548,118.519214,月季园(月季路),"118.519974,31.679055_118.518197,31.679032_118.51819,31.67881_118.518123,31.678814_118.51811,31.678504_118.517996,31.678502_118.518001,31.678247_118.519146,31.678242_118.519435,31.678099_118.519801,31.677961_118.520375,31.67794_118.520335,31.678433_118.519967,31.67854_118.519974,31.679055"
340503,康乐路与采秣路交叉口西北150米,马鞍山市,B022B00NJY,31.671085,118.516944,朝辉花园,"118.516296,31.670793_118.516307,31.670772_118.516328,31.670755_118.517318,31.670537_118.517389,31.67055_118.517456,31.670585_118.5175,31.670606_118.517533,31.670645_118.517539,31.67151_118.517506,31.671544_118.517454,31.67155_118.516296,31.671524_118.516296,31.670793"
340504,九华东路与军民路交叉口东北角,马鞍山市,B0FFF01VPI,31.653936,118.530459,朝辉豪庭,"118.529143,31.653428_118.529184,31.65332_118.530638,31.653291_118.531451,31.653305_118.531715,31.653494_118.531883,31.653583_118.531903,31.653935_118.531924,31.654121_118.531966,31.654288_118.531985,31.654435_118.531946,31.654469_118.53011,31.65445_118.529311,31.654845_118.529205,31.654858_118.529143,31.653428"
340503,雨山东路666号,马鞍山市,B022B00LFN,31.674167,118.520658,朝辉首府,"118.518974,31.675076_118.51891,31.674992_118.518931,31.673538_118.518946,31.673456_118.519017,31.673423_118.522375,31.673408_118.523079,31.67404_118.523093,31.674098_118.523072,31.674163_118.522819,31.674184_118.522572,31.674314_118.522315,31.67445_118.521709,31.674476_118.521708,31.67462_118.521482,31.674758_118.521059,31.675057_118.520993,31.675061_118.520926,31.675056_118.519778,31.675067_118.519047,31.675095_118.518974,31.675076"
340503,湖北东路与王家山路交叉口西北200米,马鞍山市,B0FFGAW84R,31.701457,118.514156,朱家塘小区,"118.514428,31.700507_118.514843,31.700595_118.515539,31.700925_118.51541,31.701168_118.515881,31.701342_118.515725,31.701554_118.515488,31.701872_118.514863,31.701745_118.514702,31.701778_118.514423,31.701875_118.514332,31.701898_118.514355,31.702413_118.513352,31.702443_118.512618,31.702443_118.512611,31.702274_118.512664,31.702236_118.512807,31.702235_118.512807,31.701733_118.513197,31.70165_118.51328,31.701577_118.513337,31.701455_118.513368,31.701287_118.513352,31.701108_118.513329,31.701034_118.513197,31.700961_118.513134,31.700946_118.512953,31.700952_118.513734,31.700413_118.513897,31.700583_118.514211,31.700548_118.514227,31.700479_118.514428,31.700507"
340503,四园路与重阳路交叉口西南100米,马鞍山市,B022B0M7FM,31.676328,118.517174,杏苑,"118.516697,31.676838_118.516705,31.676017_118.516937,31.676011_118.516961,31.675766_118.517595,31.675748_118.517608,31.676416_118.517604,31.676598_118.517592,31.676765_118.517555,31.676833_118.517515,31.676847_118.516697,31.676838"
340503,湖东路,马鞍山市,B022B0M4EH,31.68899,118.507819,杨秣小区,"118.507081,31.688623_118.507079,31.68849_118.507179,31.688399_118.508366,31.688407_118.50837,31.689803_118.508363,31.689906_118.508321,31.689925_118.508091,31.68981_118.507953,31.689696_118.507698,31.68948_118.507641,31.689402_118.507642,31.689266_118.507205,31.689259_118.507173,31.689247_118.507157,31.689222_118.507149,31.689022_118.507139,31.688938_118.507084,31.688866_118.507081,31.688623"
340504,石山路与西向路交叉口东100米,马鞍山市,B0FFFXTB40,31.662256,118.5993,松源嘉苑,"118.597715,31.662751_118.598326,31.660655_118.598385,31.660637_118.59919,31.660764_118.599635,31.660879_118.6,31.661084_118.600344,31.661385_118.600987,31.663193_118.601003,31.663271_118.600993,31.66334_118.600955,31.663376_118.600891,31.663408_118.599818,31.6636_118.599464,31.663623_118.599067,31.66355_118.598799,31.663454_118.597865,31.663029_118.597774,31.662906_118.597715,31.662842_118.597715,31.662751"
340503,矿西路与菊园路交叉口南100米,马鞍山市,B022B00NAM,31.67996,118.519983,桂花园(月季路),"118.518939,31.680445_118.518526,31.680447_118.51855,31.67956_118.519133,31.679572_118.519157,31.679161_118.519366,31.679148_118.519354,31.679452_118.519677,31.679453_118.519695,31.679159_118.520901,31.679142_118.520964,31.679581_118.520986,31.679749_118.521107,31.679921_118.521654,31.680223_118.521659,31.680376_118.521344,31.680372_118.521334,31.680611_118.518945,31.680602_118.518939,31.680445"
340503,佳山路37-1号,马鞍山市,B022B0M4EB,31.678926,118.513569,桃花村,"118.512139,31.679307_118.512166,31.678549_118.514983,31.678535_118.514967,31.679311_118.512139,31.679307"
340503,天宝路东100米,马鞍山市,B0FFIP2R79,31.708443,118.538234,桥山嘉苑东区,"118.538277,31.70969_118.537724,31.709681_118.537436,31.709465_118.538203,31.707213_118.538338,31.707187_118.539052,31.707254_118.538277,31.70969"
340503,马天宝路西50米,马鞍山市,B0FFGLMJCB,31.708565,118.535965,桥山嘉苑西区,"118.534599,31.709159_118.534541,31.709622_118.536481,31.709641_118.536473,31.70944_118.536588,31.709435_118.537087,31.707923_118.53726,31.707949_118.537541,31.707198_118.537078,31.707177_118.536049,31.707679_118.534803,31.708294_118.534671,31.708808_118.534599,31.709159"
340503,王家山路北50米,马鞍山市,B0FFG0TISV,31.703258,118.515176,梅园,"118.51351,31.703011_118.513605,31.70301_118.513622,31.702912_118.513699,31.702893_118.513722,31.702782_118.51377,31.702744_118.513768,31.702542_118.515205,31.7024_118.51551,31.702459_118.515844,31.702565_118.516121,31.702655_118.516517,31.702752_118.516699,31.702811_118.51682,31.702815_118.516833,31.704072_118.516797,31.704089_118.516635,31.704103_118.516549,31.704055_118.516526,31.703958_118.515888,31.704053_118.515873,31.703994_118.515225,31.70409_118.515221,31.70368_118.514485,31.703714_118.514437,31.703814_118.514386,31.703955_118.514269,31.703962_118.513703,31.703973_118.513702,31.704082_118.513512,31.704087_118.51351,31.703011"
340521,马于湖路与梅塘路交叉口西南200米,马鞍山市,B022B00O0C,31.56463,118.503327,梅塘苑,"118.50422,31.565306_118.502463,31.565332_118.502461,31.564639_118.502557,31.563652_118.503061,31.563659_118.503061,31.56415_118.504263,31.564157_118.50422,31.565306"
340503,恒兴路与金泉街交汇处,马鞍山市,B022B0MDF9,31.717116,118.483664,梧桐雅苑,"118.48026,31.720198_118.483497,31.718158_118.484935,31.71722_118.486306,31.716335_118.486839,31.716018_118.487118,31.71592_118.487185,31.715475_118.48716,31.715376_118.48709,31.715307_118.486404,31.715578_118.486327,31.715573_118.486261,31.715539_118.486177,31.715529_118.486008,31.715517_118.485973,31.715496_118.485899,31.7154_118.485886,31.715356_118.486165,31.715199_118.486103,31.714985_118.485889,31.714545_118.485712,31.714407_118.485626,31.714416_118.485121,31.714574_118.484928,31.714701_118.484928,31.714766_118.484994,31.71488_118.484609,31.71526_118.48429,31.715523_118.483403,31.716249_118.483299,31.716477_118.482435,31.717052_118.482081,31.717292_118.481172,31.7182_118.480732,31.718654_118.479965,31.719915_118.48026,31.720198"
340503,佳山路8号,马鞍山市,B022B00NKF,31.674856,118.516696,梨苑,"118.516244,31.673636_118.516251,31.673704_118.515807,31.673699_118.515833,31.675305_118.515823,31.67588_118.516024,31.675881_118.516024,31.675684_118.517605,31.675691_118.517606,31.675372_118.518445,31.675221_118.518848,31.675114_118.518809,31.674852_118.518385,31.675018_118.516926,31.675011_118.51692,31.674575_118.516849,31.674575_118.51684,31.673646_118.516244,31.673636"
340504,向山北路与杨庄路交叉口东北50米,马鞍山市,B0FFFYFR9H,31.664636,118.597904,桥头嘉苑,"118.597101,31.665717_118.597478,31.665813_118.597592,31.665786_118.5976,31.664845_118.598576,31.664829_118.598599,31.663964_118.598591,31.663902_118.597707,31.663901_118.597659,31.663959_118.597424,31.664824_118.597486,31.664944_118.59749,31.665143_118.597247,31.66514_118.59714,31.665523_118.597101,31.665717"
340503,江东大道、花山美居旁边,马鞍山市,B022B0MIVG,31.691345,118.522905,欣明国际,"118.522458,31.691659_118.52247,31.691225_118.522685,31.691225_118.522801,31.69112_118.522829,31.690968_118.523279,31.690961_118.523263,31.691535_118.52319,31.691635_118.523096,31.691652_118.522458,31.691659"
340521,振兴北路16号附近,马鞍山市,B0FFFEIBZP,31.575459,118.501748,正元·香槟城,"118.501852,31.577468_118.503081,31.576915_118.503207,31.574116_118.500146,31.574011_118.500087,31.57596_118.500745,31.575978_118.500739,31.576401_118.500932,31.576648_118.501286,31.576668_118.501627,31.576931_118.501852,31.577468"
340521,振兴北路正元香槟城南侧,马鞍山市,B0FFHET3KD,31.572383,118.496725,襄城河公园,"118.49541,31.572737_118.495394,31.572495_118.495705,31.571924_118.496794,31.571901_118.49681,31.571796_118.497228,31.571791_118.497223,31.572006_118.498505,31.571994_118.4985,31.572111_118.497878,31.572125_118.497872,31.572765_118.49777,31.572797_118.497159,31.572911_118.496971,31.572861_118.496713,31.572851_118.496327,31.572938_118.49541,31.572737"
340503,佳山二村,马鞍山市,B022B0M7VS,31.687705,118.51269,正棱山庄,"118.512477,31.688228_118.512485,31.688393_118.512091,31.688408_118.512088,31.688141_118.512018,31.688141_118.512051,31.68744_118.512153,31.68731_118.512174,31.687127_118.513303,31.687098_118.513357,31.687116_118.513349,31.688004_118.513303,31.688223_118.512477,31.688228"
340521,东营路与棉纺路交叉口东南100米,马鞍山市,B022B0M7HX,31.56173,118.494644,水墨兰庭·金街,"118.49344,31.562941_118.493435,31.560888_118.494586,31.560813_118.494626,31.560354_118.495235,31.560424_118.495962,31.560413_118.495498,31.562948_118.49344,31.562941"
340503,江东大道北段59号附近,马鞍山市,B022B0MIKZ,31.703939,118.522814,永安花园,"118.522449,31.704546_118.523066,31.704519_118.523262,31.704314_118.523249,31.703421_118.523133,31.703362_118.522431,31.703357_118.522396,31.70341_118.522388,31.704492_118.522449,31.704546"
340504,天门大道中段518号,马鞍山市,B0FFIV37S3,31.682278,118.480446,永泰家园北区,"118.479622,31.683102_118.478356,31.681659_118.481049,31.681477_118.481706,31.681497_118.481733,31.68241_118.481792,31.682442_118.482151,31.682419_118.482194,31.683132_118.482135,31.683154_118.481733,31.683195_118.481513,31.683031_118.480966,31.682817_118.480794,31.683045_118.479622,31.683102"
340504,天门大道中段与马钢便道交叉口东南150米,马鞍山市,B0FFGLM5IQ,31.681087,118.479305,永泰家园南区,"118.476108,31.678972_118.476026,31.678579_118.476659,31.678479_118.477168,31.67838_118.477534,31.678367_118.477803,31.678374_118.478204,31.678329_118.478387,31.6789_118.478372,31.679091_118.478388,31.679363_118.478939,31.679463_118.478938,31.679324_118.479397,31.679283_118.479427,31.679484_118.479375,31.679496_118.479366,31.679623_118.479403,31.679751_118.479469,31.679888_118.479635,31.679971_118.479815,31.680027_118.480262,31.680062_118.480362,31.680056_118.481031,31.680253_118.481097,31.680338_118.48109,31.680408_118.481022,31.680519_118.481029,31.680675_118.48057,31.680707_118.480591,31.68113_118.478097,31.681287_118.477978,31.681249_118.476108,31.678972"
340503,江东大道北段818号,马鞍山市,B022B00LFS,31.699061,118.526332,汇成上东,"118.529105,31.697257_118.528928,31.698695_118.528708,31.700434_118.528602,31.701117_118.528466,31.701199_118.524085,31.701175_118.523908,31.701159_118.523826,31.701068_118.523795,31.700969_118.523787,31.69991_118.523779,31.697911_118.523809,31.697197_118.523827,31.697101_118.523879,31.697023_118.524025,31.69699_118.526931,31.697009_118.528916,31.697023_118.528991,31.697064_118.529085,31.697144_118.529105,31.697257"
340504,湖南路15号,马鞍山市,B022B00KW4,31.683602,118.500233,汇翠名邸,"118.499221,31.684233_118.499262,31.683226_118.499276,31.682951_118.5012,31.682948_118.501228,31.684149_118.501153,31.684233_118.501094,31.684261_118.499221,31.684233"
340503,江东大道与雨山路交叉口西南角(欧尚超市对面),马鞍山市,B022B0MGI1,31.671928,118.52266,汇金广场,"118.522503,31.671477_118.522494,31.671269_118.523251,31.671254_118.523247,31.671904_118.522149,31.672863_118.522046,31.672806_118.522216,31.671886_118.522503,31.671477"
