adcode,address,city,id,lat,lng,name,shape
310115,南洋泾路555号2号楼,上海市,B0FFG9VIPV,31.233759,121.557305,陆家嘴金融街区,"121.557832,31.234972_121.557883,31.234818_121.557993,31.234495_121.558084,31.234325_121.558757,31.233495_121.557773,31.233051_121.556748,31.232584_121.556018,31.233976_121.556045,31.234118_121.557832,31.234972"
310115,,上海市,B00156EVQO,31.237015,121.502500,陆家嘴,"121.506719,31.244507_121.511279,31.237505_121.513170,31.234690_121.514278,31.232955_121.514561,31.232418_121.515340,31.230403_121.514297,31.230096_121.515136,31.227254_121.515387,31.226269_121.517209,31.226963_121.518260,31.223402_121.519056,31.220699_121.519303,31.219706_121.519399,31.218877_121.519418,31.218306_121.519151,31.213188_121.518822,31.212059_121.515667,31.205368_121.513756,31.201724_121.506486,31.204352_121.509595,31.209946_121.511369,31.213142_121.511787,31.214701_121.511847,31.216482_121.511469,31.217924_121.510532,31.219968_121.508440,31.223796_121.506408,31.226523_121.503917,31.229072_121.497381,31.234074_121.496086,31.235298_121.495448,31.236300_121.495030,31.237622_121.495110,31.238943_121.495887,31.240321_121.497362,31.241377_121.499534,31.242371_121.501119,31.242870_121.506719,31.244507"
310114,嘉涌路101号附近,上海市,B0FFF6YUBJ,31.269529,121.33578,长九MAX未来,"121.336112,31.268337_121.335705,31.268475_121.33549,31.268541_121.335342,31.268578_121.335145,31.268615_121.334839,31.268665_121.334819,31.268669_121.334794,31.268676_121.334782,31.268687_121.334777,31.268704_121.334823,31.269164_121.334882,31.269625_121.335069,31.270503_121.335079,31.270522_121.335092,31.270542_121.335111,31.27056_121.335125,31.270569_121.33514,31.270578_121.335167,31.270584_121.3352,31.270589_121.335447,31.270575_121.336741,31.270447_121.336761,31.270441_121.336776,31.270433_121.336782,31.270424_121.336785,31.270416_121.336742,31.269965_121.336725,31.269566_121.336719,31.269509_121.336705,31.269443_121.336687,31.269363_121.336673,31.269316_121.336648,31.26926_121.336306,31.268465_121.336287,31.268438_121.336267,31.268411_121.336219,31.268364_121.336181,31.268343_121.336167,31.268339_121.336143,31.268335_121.336112,31.268337"
310115,浦东大道729号,上海市,B00155G4RA,31.241045,121.525666,VIP大厦,"121.526003,31.241209_121.526005,31.241127_121.52599,31.240962_121.52597,31.240891_121.525512,31.240868_121.525389,31.240857_121.525354,31.240874_121.525344,31.241213_121.526003,31.241209"
310115,浦东大道727弄3号楼,上海市,B00155KO3Y,31.241399,121.525698,VIP小区,"121.526053,31.241422_121.526057,31.240891_121.525493,31.240859_121.525377,31.240849_121.525344,31.240868_121.525322,31.241846_121.526036,31.242001_121.526053,31.241422"
310114,海波路583号,上海市,B001576WL7,31.267789,121.336079,yoho街区,"121.335743,31.268294_121.336139,31.268129_121.336844,31.26775_121.336889,31.267649_121.336559,31.267451_121.336388,31.267424_121.33597,31.26744_121.335694,31.267513_121.335549,31.267585_121.335412,31.267709_121.335652,31.268255_121.335743,31.268294"
310106,西康路556弄(近康定路),上海市,B00155EN9N,31.234685,121.446981,联谊·西康大厦,"121.446509,31.234712_121.446977,31.234277_121.447438,31.234564_121.447063,31.235076_121.446967,31.235107_121.446509,31.234712"
310109,凉城路1188弄-1-28号,上海市,B00155L2IX,31.302362,121.4724,一品新筑苑,"121.471177,31.301713_121.471514,31.301699_121.471503,31.301503_121.472253,31.301494_121.47232,31.301919_121.472988,31.301839_121.47295,31.301648_121.473401,31.3016_121.473497,31.302161_121.473519,31.302329_121.473522,31.302603_121.472828,31.302641_121.472776,31.303219_121.471177,31.303231_121.471177,31.301713"
310112,浦星公路568弄,上海市,B0FFFVIRQW,31.117675,121.495804, 鹏欣·一品漫城1期,"121.49397,31.117934_121.494021,31.117983_121.494922,31.11832_121.495515,31.118511_121.496092,31.118688_121.495893,31.119314_121.496081,31.119466_121.496658,31.11981_121.497411,31.117558_121.496977,31.117452_121.496888,31.11765_121.496448,31.117562_121.496526,31.117294_121.496572,31.11666_121.49662,31.116361_121.495166,31.115868_121.494705,31.116747_121.49397,31.117934"
310112,芦恒路378弄,上海市,B001573186,31.116984,121.48824,鹏欣一品漫城4期,"121.486679,31.116295_121.486488,31.116834_121.486896,31.116905_121.48679,31.117334_121.489464,31.117741_121.489678,31.117627_121.489844,31.116625_121.488212,31.116453_121.486711,31.11626_121.486679,31.116295"
310112,浦星路568弄,上海市,B0015731HP,31.115995,121.490926,鹏欣一品漫城3期,"121.490937,31.117967_121.491073,31.117619_121.492183,31.114638_121.490505,31.11418_121.490263,31.115687_121.490141,31.1165_121.489958,31.117626_121.489955,31.117812_121.490937,31.117967"
310112,浦星路568号,上海市,B0015731DL,31.116388,121.493303,一品漫城2期,"121.491697,31.117044_121.492382,31.11504_121.493731,31.115426_121.495043,31.115835_121.49467,31.116765_121.494554,31.116785_121.49402,31.117689_121.491738,31.117114_121.491697,31.117044"
310112,闵行芦恒路306弄(8号线芦恒路站旁),上海市,B0FFGCERBW,31.114867,121.486351,鹏欣一品漫城5期前滩尚城,"121.485344,31.116934_121.485881,31.117147_121.486795,31.117306_121.486884,31.116908_121.486482,31.116837_121.486715,31.116058_121.487297,31.114504_121.487604,31.113661_121.487475,31.113492_121.487561,31.113302_121.487508,31.113283_121.4877,31.112804_121.486537,31.112383_121.486439,31.112383_121.48631,31.112473_121.485284,31.115596_121.484916,31.116705_121.485344,31.116934"
310112,浦江镇浦申路2512号,上海市,B0FFFHB81U,31.115741,121.49275,闵行区一品漫城幼儿园,"121.492104,31.115921_121.493043,31.11617_121.493229,31.11571_121.493344,31.115733_121.493469,31.115404_121.493226,31.115346_121.493143,31.115571_121.492949,31.115524_121.492931,31.115547_121.492286,31.115371_121.492104,31.115921"
310106,恒通路360号,上海市,B00152D0B2,31.240469,121.45711,一天下大厦,"121.457429,31.2408_121.457713,31.240129_121.457721,31.24008_121.457721,31.240041_121.457702,31.240005_121.457678,31.239979_121.457643,31.239966_121.457582,31.239957_121.457418,31.239952_121.457158,31.239968_121.456868,31.240021_121.456705,31.240085_121.456522,31.24019_121.456439,31.240278_121.45641,31.240326_121.456402,31.240358_121.456404,31.240383_121.456418,31.240408_121.456455,31.240443_121.457035,31.240865_121.457112,31.240897_121.457174,31.240906_121.45723,31.240913_121.457287,31.240913_121.45734,31.240899_121.457378,31.240883_121.457394,31.24086_121.457429,31.2408"
310105,华山路800弄6-30号,上海市,B00155E60A,31.214101,121.438268,丁香公寓,"121.437527,31.213777_121.437408,31.213688_121.437683,31.213354_121.437931,31.213505_121.438344,31.213747_121.439217,31.214275_121.439217,31.214371_121.438848,31.214787_121.438466,31.214622_121.437875,31.214316_121.437395,31.213984_121.437527,31.213777"
310105,华山路894弄之1-2号,上海市,B001559B41,31.213016,121.43827,丁香大楼,"121.438798,31.212781_121.438502,31.21316_121.438479,31.213149_121.438124,31.21359_121.437701,31.213343_121.438428,31.212415_121.438479,31.212426_121.438569,31.212514_121.438798,31.212781"
310115,丁香路858号,上海市,B00156TJ6S,31.225151,121.550969,上海丁香国际商业中心,"121.551748,31.224913_121.55229,31.225076_121.552319,31.225094_121.552341,31.225126_121.552342,31.225144_121.552341,31.225176_121.552095,31.225737_121.552082,31.225767_121.552058,31.225797_121.552021,31.225819_121.551992,31.225842_121.55197,31.225851_121.551937,31.225863_121.551901,31.225867_121.551866,31.225868_121.551815,31.225863_121.549709,31.225273_121.549685,31.225259_121.549662,31.225224_121.549654,31.225193_121.549656,31.225163_121.549868,31.224462_121.54989,31.22443_121.549908,31.224414_121.549941,31.2244_121.549972,31.224396_121.550026,31.224403_121.551748,31.224913"
310115,民生路1286号,上海市,B0015205D8,31.224648,121.548968,汇商大厦(民生路),"121.548513,31.224912_121.54875,31.224262_121.549438,31.224381_121.549203,31.224961_121.549163,31.224998_121.549124,31.225013_121.549077,31.225021_121.549017,31.225026_121.548513,31.224912"
310105,延安西路719号(丁香花园),上海市,B001521E01,31.214346,121.434251,佳都大厦,"121.43452,31.214351_121.434269,31.214578_121.434006,31.214347_121.433996,31.214315_121.434002,31.214284_121.434256,31.21413_121.43452,31.214351"
310106,七浦路208号,上海市,B0FFG0ZEJ9,31.246035,121.481469,华侨公寓(七浦路),"121.481216,31.246304_121.481538,31.246336_121.481589,31.246298_121.481741,31.245838_121.481701,31.245788_121.481332,31.245733_121.481216,31.246304"
310106,塘沽路835号1103,上海市,B00155QXUK,31.245932,121.479688,万豪公寓(塘沽路),"121.479895,31.246106_121.479956,31.245818_121.479474,31.245757_121.479426,31.246049_121.479895,31.246106"
310112,航中路99弄,上海市,B00156EXCT,31.166843,121.353851,七韵美地苑,"121.352072,31.167379_121.352155,31.167595_121.35393,31.168374_121.354071,31.168131_121.35417,31.168166_121.354314,31.167915_121.354759,31.168065_121.355376,31.167045_121.354856,31.166818_121.354944,31.166657_121.355178,31.166751_121.355315,31.166533_121.355601,31.166667_121.355766,31.166367_121.355769,31.166311_121.355749,31.16626_121.355716,31.166214_121.355667,31.166185_121.35342,31.16526_121.353317,31.165287_121.353206,31.165433_121.352072,31.167379"
310107,中山北路1482号,上海市,B0FFFLJ0ZN,31.254944,121.440585,万业·新阶,"121.440332,31.255124_121.440739,31.255281_121.440864,31.255324_121.44094,31.2553_121.440995,31.255253_121.441036,31.255206_121.441129,31.254787_121.440145,31.254605_121.440013,31.254865_121.440011,31.254925_121.44002,31.254967_121.440039,31.255008_121.440332,31.255124"
310117,泗通路688弄,上海市,B0FFHEN6MH,31.126017,121.256883,万业名苑,"121.256005,31.12673_121.25601,31.126756_121.256029,31.126778_121.256092,31.126825_121.256128,31.126848_121.25616,31.126855_121.256553,31.126868_121.257359,31.126917_121.257685,31.126911_121.257942,31.126879_121.257977,31.12687_121.257987,31.126857_121.257988,31.126838_121.257956,31.126722_121.2579,31.126582_121.257798,31.126252_121.25772,31.125952_121.257681,31.125588_121.257698,31.125267_121.25772,31.125076_121.257719,31.125061_121.257712,31.125052_121.257688,31.125042_121.257397,31.125066_121.256697,31.125136_121.255963,31.125208_121.255928,31.125216_121.255893,31.125228_121.255876,31.125241_121.255853,31.125264_121.255842,31.125301_121.255864,31.125554_121.255887,31.125733_121.256005,31.12673"
310113,江杨北路1568弄1,上海市,B0015783F9,31.39858,121.436351,万业紫辰苑,"121.441335,31.398148_121.441325,31.398137_121.441304,31.398135_121.441279,31.398141_121.440776,31.398275_121.44035,31.398365_121.439935,31.398424_121.439652,31.398456_121.439389,31.398477_121.438904,31.398488_121.438652,31.398489_121.438133,31.398467_121.437468,31.398386_121.436977,31.398293_121.436763,31.398247_121.436575,31.398178_121.435214,31.397665_121.434876,31.397505_121.434446,31.39726_121.434038,31.397006_121.433881,31.396874_121.433401,31.396468_121.433106,31.396218_121.432903,31.395986_121.432649,31.395709_121.43241,31.395392_121.432202,31.395064_121.431993,31.394651_121.431977,31.394646_121.43195,31.394647_121.43193,31.394658_121.431914,31.394673_121.431902,31.394692_121.43121,31.396507_121.431205,31.396535_121.43121,31.396554_121.431231,31.396577_121.431258,31.396592_121.431905,31.396831_121.433564,31.397464_121.433025,31.398542_121.433022,31.398563_121.433028,31.398582_121.433041,31.398593_121.433059,31.398603_121.434379,31.399078_121.434403,31.39908_121.434426,31.399075_121.434438,31.399066_121.43445,31.399055_121.434567,31.398822_121.43544,31.399109_121.436153,31.39935_121.435802,31.400116_121.435797,31.400142_121.435799,31.400166_121.435808,31.400183_121.435831,31.400203_121.436687,31.400387_121.437111,31.400454_121.437561,31.400488_121.438188,31.40052_121.438986,31.400544_121.439365,31.400531_121.44047,31.400469_121.441054,31.398938_121.441341,31.398163_121.441335,31.398148"
310113,万业·紫辰苑C区(白沙园路北),上海市,B0FFI8CQVA,31.396284,121.432453,万业·紫辰苑C区,"121.431811,31.395011_121.431926,31.39468_121.431982,31.394656_121.432194,31.395075_121.432398,31.395394_121.432623,31.395696_121.433098,31.396218_121.433666,31.396717_121.433862,31.396875_121.43357,31.39744_121.432127,31.396905_121.432105,31.39683_121.431413,31.3966_121.431305,31.396449_121.431811,31.395011"
310112,吴泾镇莲花南路红绿灯附近,上海市,B0FFF01W5I,31.038405,121.445443,万乐城,"121.443856,31.039045_121.443851,31.039069_121.443851,31.039098_121.443867,31.039121_121.443906,31.039143_121.44566,31.039764_121.445703,31.03977_121.445738,31.039762_121.44579,31.039731_121.44621,31.039048_121.446674,31.038214_121.446677,31.038172_121.446674,31.038142_121.446661,31.038098_121.446646,31.038058_121.446634,31.038016_121.44663,31.037969_121.446655,31.037923_121.446679,31.037877_121.446693,31.037843_121.446686,31.037807_121.446577,31.037673_121.446231,31.037273_121.445668,31.036836_121.44562,31.036804_121.445561,31.036783_121.445505,31.036832_121.44518,31.037346_121.444941,31.0377_121.444354,31.038406_121.443856,31.039045"
310110,佳木斯路321弄(近营口路),上海市,B001518057,31.294648,121.536892,万佳苑,"121.537469,31.294493_121.537405,31.294455_121.536158,31.293669_121.535616,31.2942_121.536416,31.294836_121.537429,31.295642_121.538175,31.294974_121.537719,31.294669_121.53753,31.294533_121.537469,31.294493"
310112,七莘路2855号,上海市,B0FFGFB0LU,31.148707,121.350898,万兆家园,"121.351498,31.147232_121.350851,31.147116_121.350837,31.147226_121.350816,31.147342_121.350765,31.14739_121.350593,31.147509_121.350449,31.147646_121.349923,31.147319_121.34942,31.147977_121.349232,31.148233_121.348536,31.149083_121.348462,31.149254_121.349108,31.1494_121.349543,31.149498_121.3501,31.149764_121.350952,31.150286_121.351452,31.150623_121.351753,31.150266_121.351573,31.150145_121.352571,31.149056_121.352773,31.149188_121.353142,31.1488_121.352351,31.14828_121.352786,31.147784_121.351938,31.147351_121.351498,31.147232"
310112,七莘路2885号,上海市,B00155D7JZ,31.150451,121.349372,莱茵清境,"121.349498,31.150678_121.350017,31.150859_121.350085,31.150767_121.350237,31.150743_121.350642,31.150978_121.350937,31.150615_121.350711,31.150449_121.350423,31.150252_121.350146,31.150105_121.349926,31.15001_121.34983,31.149947_121.349426,31.149786_121.349011,31.149662_121.348772,31.149612_121.348478,31.149559_121.348138,31.149542_121.34798,31.149992_121.349244,31.150361_121.348623,31.151846_121.34871,31.151968_121.348795,31.152021_121.348895,31.152033_121.34901,31.151807_121.349109,31.151608_121.34923,31.151316_121.349498,31.150678"
310116,学府路1387号,上海市,B0FFFA2POM,30.74279,121.319911,万和家园,"121.318401,30.741394_121.317746,30.742991_121.321458,30.744279_121.321509,30.744278_121.321538,30.744252_121.321838,30.742358_121.318401,30.741394"
310117,莘松路1435弄1-14号,上海市,B00155L4AA,31.092381,121.339887,万宇漓水花苑,"121.339829,31.09319_121.339255,31.092965_121.339927,31.091578_121.340527,31.091808_121.339829,31.09319"
310117,新南街301弄-1-34号,上海市,B00156DGZP,31.061302,121.31533,万宇·阳光苑,"121.316263,31.061196_121.316319,31.061185_121.316211,31.060645_121.314271,31.060714_121.3143,31.061538_121.314648,31.061546_121.314669,31.061842_121.314698,31.061988_121.314718,31.062118_121.316386,31.061799_121.316263,31.061196"
310101,重庆南路205弄1-116号,上海市,B001557YVF,31.214016,121.471303,万宜坊(重庆南路),"121.470954,31.214453_121.470932,31.214319_121.470928,31.214097_121.471,31.214103_121.471834,31.214278_121.471895,31.214049_121.47193,31.21398_121.471973,31.213817_121.471993,31.213753_121.471635,31.213743_121.471229,31.213739_121.470876,31.21374_121.470794,31.213796_121.470746,31.213882_121.470713,31.213987_121.470827,31.214628_121.47095,31.214628_121.470967,31.214495_121.47097,31.214474_121.470954,31.214453"
310116,"卫镇板桥路城东路45号,城河路273号",上海市,B0015273CB,30.731522,121.326534,万寿新村(城河路),"121.326244,30.730404_121.326013,30.731072_121.325573,30.732289_121.3256,30.732325_121.326912,30.73263_121.32743,30.730644_121.326244,30.730404"
310118,万寿一路与万寿路交叉口西150米,上海市,B00155L48Z,31.155683,121.107833,万寿新村4区,"121.106993,31.153638_121.106594,31.153883_121.10667,31.15448_121.106856,31.154918_121.106961,31.155393_121.106908,31.155912_121.106918,31.156803_121.107448,31.156942_121.109213,31.156884_121.108948,31.155269_121.108402,31.155208_121.108492,31.154633_121.107288,31.154561_121.106993,31.153638"
310118,青浦镇,上海市,B001523C84,31.159307,121.110611,万寿新村七区,"121.109852,31.159059_121.110094,31.158956_121.110313,31.158921_121.110316,31.158776_121.110348,31.158648_121.110776,31.158577_121.110979,31.158526_121.111211,31.158453_121.111203,31.158574_121.111352,31.158592_121.111313,31.159181_121.111243,31.159822_121.111164,31.159866_121.110879,31.159875_121.110543,31.159917_121.110333,31.160064_121.109862,31.160069_121.109852,31.159059"
310118,青赵公路170号,上海市,B0FFF2JUMM,31.154722,121.110903,万寿新村一区,"121.111523,31.153906_121.111356,31.154471_121.111435,31.154508_121.111393,31.154672_121.11108,31.154757_121.111042,31.154769_121.111041,31.154831_121.111225,31.155155_121.111496,31.155479_121.111547,31.155598_121.11119,31.15563_121.110342,31.155522_121.110401,31.154999_121.110396,31.154898_121.110396,31.154782_121.110603,31.153761_121.111523,31.153906"
310118,万寿二路与万寿路交叉口东南150米,上海市,B00155F1OM,31.157681,121.111228,万寿新村六区,"121.112382,31.158262_121.112371,31.158027_121.112053,31.158015_121.112014,31.157995_121.111992,31.157942_121.111965,31.157624_121.11183,31.156924_121.111726,31.156852_121.111389,31.156863_121.110465,31.15694_121.110581,31.157928_121.110389,31.157936_121.110322,31.158436_121.110713,31.158494_121.111278,31.158313_121.112382,31.158262"
310118,万寿二路34号(万寿路220弄),上海市,B001557YTI,31.159072,121.111812,万寿新村玫瑰园,"121.112348,31.158341_121.111267,31.158384_121.111219,31.158423_121.111209,31.158569_121.111359,31.158587_121.11134,31.158934_121.111317,31.159278_121.111284,31.159542_121.111262,31.159817_121.111317,31.16004_121.111709,31.159975_121.11169,31.159826_121.111948,31.159792_121.111914,31.159481_121.112452,31.159443_121.112407,31.158368_121.112348,31.158341"
310118,万寿一路与万寿路交叉口东北150米,上海市,B001521B51,31.156186,121.11022,万寿新村3区,"121.109108,31.155544_121.109205,31.155503_121.110066,31.155567_121.110053,31.155753_121.110286,31.155762_121.11031,31.155588_121.111219,31.155652_121.111254,31.156311_121.111273,31.156754_121.111219,31.156781_121.10946,31.156825_121.109385,31.156781_121.109108,31.155544"
310118,万寿路与青赵公路交叉口东北150米,上海市,B00154DV01,31.154507,121.109862,万寿新村2区,"121.109471,31.15493_121.10942,31.155403_121.110253,31.155496_121.110286,31.154926_121.110299,31.154751_121.110315,31.154564_121.110461,31.154035_121.110506,31.153772_121.109606,31.15362_121.109544,31.153871_121.109286,31.153816_121.109156,31.154397_121.109491,31.154454_121.109445,31.154628_121.109471,31.15493"
310109,华严路58弄-1-64号,上海市,B00156DB04,31.303547,121.473517,万峰小区(华严路),"121.472882,31.303074_121.473581,31.303091_121.473573,31.303294_121.474274,31.303306_121.474252,31.30393_121.472861,31.30391_121.472882,31.303074"
310109,车站北路188弄之1-12号,上海市,B00155L4QP,31.297596,121.478842,万峰嘉苑,"121.478326,31.297938_121.479419,31.297943_121.479335,31.297259_121.478298,31.297231_121.478326,31.297938"
310109,广灵四路881弄1-54号,上海市,B00154DDY3,31.282804,121.462241,万峰梦湖苑,"121.462726,31.280748_121.461973,31.280656_121.461925,31.280863_121.461729,31.281333_121.461604,31.281623_121.46149,31.281941_121.461455,31.282199_121.461495,31.282467_121.461637,31.282979_121.461733,31.283735_121.461776,31.283882_121.461896,31.284559_121.462904,31.284945_121.462998,31.284772_121.462998,31.284642_121.462729,31.282742_121.462718,31.282327_121.462675,31.281919_121.462649,31.281768_121.462633,31.281513_121.462638,31.281295_121.462703,31.281109_121.462715,31.280978_121.462726,31.280748"
310109,万安路1213弄1-85号,上海市,B00155L2J3,31.301589,121.468838,万康小区,"121.46942,31.302083_121.46953,31.302093_121.470058,31.3021_121.470069,31.301113_121.468864,31.301032_121.468476,31.300922_121.467861,31.300769_121.467785,31.300839_121.467853,31.302319_121.468564,31.302305_121.468736,31.302268_121.469144,31.302141_121.469267,31.302084_121.46942,31.302083"
310113,绥化路265弄1-139号,上海市,B00156EQ3P,31.406627,121.427563,万昇家园,"121.428579,31.40718_121.42885,31.406156_121.428783,31.40614_121.42839,31.406057_121.427884,31.405954_121.426783,31.405665_121.426705,31.405699_121.426654,31.40576_121.426268,31.407093_121.428449,31.407584_121.428579,31.40718"
310110,双阳路490弄1-5号,上海市,B00155L2U9,31.283574,121.530476,万昌大厦(双阳路),"121.530701,31.283767_121.530758,31.283715_121.530839,31.283506_121.530244,31.283345_121.530116,31.283645_121.53062,31.283786_121.530701,31.283767"
310106,万春街162弄56支弄12-22号,上海市,B00155KKPO,31.228483,121.437709,万春小区,"121.437018,31.228648_121.437229,31.228122_121.437268,31.228104_121.438432,31.228458_121.438373,31.228569_121.438391,31.228624_121.43828,31.22883_121.438221,31.228833_121.437408,31.228568_121.437377,31.228573_121.437315,31.228732_121.437018,31.228648"
310116,廊下镇漕廊公路6825弄,上海市,B001557YMX,30.786173,121.223528,万春苑,"121.220986,30.788115_121.221174,30.788178_121.222161,30.788198_121.223247,30.788219_121.224057,30.788092_121.224135,30.78838_121.224242,30.788417_121.224787,30.78838_121.22505,30.788343_121.22505,30.788159_121.224848,30.787843_121.224824,30.787726_121.225009,30.787731_121.225192,30.787761_121.22527,30.78812_121.225369,30.788152_121.225583,30.788095_121.225632,30.787811_121.225557,30.787385_121.225999,30.787224_121.226179,30.786521_121.225253,30.786279_121.224687,30.786134_121.224647,30.786044_121.224679,30.785966_121.225098,30.785931_121.22528,30.78526_121.225557,30.784085_121.225444,30.784009_121.224779,30.783839_121.22395,30.783774_121.223883,30.783647_121.222341,30.78367_121.222319,30.783721_121.222464,30.784429_121.222402,30.784569_121.222169,30.78476_121.221879,30.784938_121.221654,30.785265_121.221348,30.786461_121.22137,30.786482_121.221941,30.786502_121.221957,30.786634_121.221356,30.786608_121.221303,30.786636_121.220967,30.788019_121.220986,30.788115"
310106,万春街63弄35支弄1-13号,上海市,B00155KSJO,31.229194,121.435241,万春街63弄小区,"121.435241,31.22941_121.435617,31.229545_121.435709,31.229273_121.43561,31.229239_121.435599,31.229218_121.435648,31.229044_121.435566,31.228991_121.435413,31.228967_121.435241,31.228831_121.435054,31.228945_121.434972,31.228984_121.43483,31.229_121.434681,31.229206_121.435188,31.229489_121.435241,31.22941"
310107,金沙江路2098弄3-84号,上海市,B00155L3AA,31.237628,121.371175,万景园(万镇路),"121.372963,31.238562_121.371573,31.236042_121.371505,31.235942_121.371406,31.235904_121.371314,31.235893_121.371203,31.235931_121.370665,31.2362_121.3707,31.236261_121.370776,31.236319_121.370793,31.236377_121.370636,31.236618_121.370508,31.236587_121.370441,31.236491_121.370367,31.236501_121.370307,31.236498_121.370207,31.236469_121.370101,31.236452_121.369411,31.23677_121.369316,31.236838_121.369285,31.236928_121.369318,31.237037_121.369993,31.238118_121.370443,31.238933_121.370546,31.238995_121.37134,31.238591_121.371439,31.238581_121.371558,31.238643_121.37203,31.239224_121.372105,31.239227_121.372262,31.23918_121.37288,31.238882_121.372959,31.238804_121.372998,31.23875_121.373011,31.238675_121.372963,31.238562"
310112,七莘路3128弄25支弄、七莘路3128弄38支弄,上海市,B00155L4AF,31.158185,121.347664,万泰公寓,"121.34668,31.158415_121.347286,31.15735_121.347324,31.157313_121.347369,31.157308_121.347458,31.157329_121.348649,31.157956_121.348314,31.158569_121.347955,31.159091_121.347087,31.158633_121.34668,31.158415"
310106,乌鲁木齐北路480号,上海市,B00155LB19,31.217975,121.443232,万泰国际,"121.442903,31.217729_121.442878,31.217784_121.4428,31.218094_121.442865,31.21814_121.443413,31.218221_121.443565,31.218239_121.443647,31.217792_121.442903,31.217729"
310112,七莘路2299弄,上海市,B00155QL2U,31.1426,121.355684,万泰花园,"121.354242,31.142599_121.3563,31.143506_121.356646,31.14295_121.356801,31.142737_121.357332,31.142978_121.357622,31.142521_121.357622,31.142452_121.357166,31.142372_121.356886,31.142707_121.356827,31.142695_121.356748,31.142776_121.356137,31.142495_121.356301,31.142194_121.356243,31.142138_121.35458,31.14182_121.354318,31.142231_121.354427,31.142288_121.354242,31.142599"
310112,莲花路755弄,上海市,B00156Z0MN,31.147657,121.397498,万源城1期,"121.395854,31.148554_121.396235,31.148159_121.396492,31.147801_121.396699,31.147459_121.396873,31.147083_121.39701,31.146699_121.397093,31.146415_121.39719,31.145944_121.398649,31.146516_121.398732,31.146591_121.398761,31.146679_121.398761,31.146757_121.398383,31.147923_121.39812,31.148692_121.397997,31.149038_121.39797,31.149087_121.397927,31.149139_121.397868,31.149176_121.39782,31.149183_121.397739,31.149181_121.395854,31.148554"
310112,,上海市,B0FFFDRYNN,31.146584,121.394264,万源城,"121.389132,31.150398_121.389326,31.150537_121.396416,31.152338_121.396720,31.152339_121.396908,31.152194_121.398465,31.147701_121.399524,31.144523_121.399639,31.144138_121.399447,31.143829_121.395806,31.141593_121.391953,31.140666_121.391644,31.140627_121.391432,31.140859_121.390142,31.145982_121.389129,31.150195_121.389132,31.150398"
310112,万源路580弄之1-28号,上海市,B00156NWXR,31.144112,121.397789,万源城·尚郡,"121.396128,31.142366_121.395689,31.14226_121.395436,31.143103_121.395794,31.143197_121.395973,31.14328_121.396143,31.143359_121.396234,31.143445_121.396492,31.143744_121.396697,31.144052_121.396914,31.144579_121.397049,31.144912_121.397168,31.145261_121.397262,31.145514_121.397325,31.145728_121.397366,31.145783_121.397425,31.14582_121.398809,31.146391_121.398897,31.146393_121.398947,31.146355_121.399345,31.14517_121.399681,31.144167_121.399687,31.144048_121.399652,31.143956_121.399602,31.143865_121.398205,31.142935_121.39669,31.14199_121.396583,31.142132_121.396214,31.142386_121.396128,31.142366"
310112,万源路986弄,上海市,B00155LGCW,31.150172,121.395571,万源城朗郡,"121.393949,31.148193_121.393961,31.148178_121.393988,31.148156_121.394016,31.148143_121.394051,31.148133_121.394087,31.148127_121.394121,31.14813_121.394153,31.148135_121.395423,31.148524_121.397792,31.149288_121.397856,31.149325_121.397883,31.149366_121.397896,31.149405_121.397891,31.149447_121.39788,31.149486_121.397089,31.151878_121.397076,31.1519_121.397052,31.151912_121.397027,31.151914_121.396995,31.151912_121.393262,31.150923_121.393216,31.150888_121.3932,31.150865_121.393195,31.15084_121.393602,31.149451_121.393742,31.14887_121.393942,31.14821_121.393949,31.148193"
310112,平吉路688弄,上海市,B00155INHD,31.145819,121.392319,万源城御溪,"121.390807,31.143799_121.390734,31.143866_121.390397,31.145096_121.390047,31.146569_121.390041,31.146668_121.390056,31.146738_121.390102,31.146794_121.390187,31.146848_121.391214,31.147155_121.392289,31.14747_121.393043,31.147694_121.393544,31.147832_121.393666,31.147835_121.393769,31.147826_121.393834,31.147791_121.393874,31.147709_121.394176,31.146695_121.394642,31.145114_121.394648,31.14496_121.394594,31.144865_121.394508,31.144828_121.394087,31.144686_121.392743,31.144305_121.391544,31.143955_121.390977,31.14379_121.390876,31.143785_121.390807,31.143799"
310112,万源路987号,上海市,B00156YLHW,31.148974,121.391278,万源城御璄,"121.389265,31.149803_121.389289,31.149927_121.392855,31.150825_121.392999,31.150745_121.393421,31.149324_121.392485,31.149306_121.392751,31.14842_121.392951,31.147801_121.390248,31.147042_121.39001,31.147095_121.389911,31.147196_121.389265,31.149803"
310112,万源路969号,上海市,B0FFG8U9TQ,31.148894,121.393064,闵行区万源城幼儿园御璄分园,"121.392559,31.149276_121.393324,31.149295_121.393363,31.149267_121.393382,31.149239_121.3934,31.149202_121.39362,31.148553_121.393601,31.148533_121.393253,31.148446_121.393202,31.148575_121.392747,31.148477_121.392517,31.14924_121.392521,31.149259_121.392559,31.149276"
310112,万源路788弄,上海市,B00155KOZB,31.146883,121.395425,万源城逸郡,"121.395671,31.148466_121.394212,31.148032_121.394124,31.147961_121.394097,31.147911_121.394097,31.147842_121.394864,31.145119_121.394915,31.145071_121.395006,31.145046_121.395138,31.145048_121.395178,31.145062_121.395867,31.145379_121.395663,31.145877_121.396948,31.146316_121.396758,31.146927_121.396618,31.147303_121.396476,31.147554_121.395961,31.148153_121.395671,31.148466"
310112,环镇南路200弄43号1302室,上海市,B0FFG8UDSK,31.173731,121.384091,万源新城北区,"121.386012,31.173401_121.383714,31.172645_121.382919,31.172405_121.382177,31.174067_121.383603,31.174582_121.385209,31.175029_121.385597,31.174138_121.385833,31.174196_121.386012,31.173401"
310112,万源路2289弄,上海市,B0FFH33KD6,31.170833,121.38479,万源新城南区,"121.382983,31.170703_121.383325,31.170798_121.383336,31.170886_121.383006,31.171726_121.382799,31.172159_121.384948,31.172862_121.385521,31.17171_121.385729,31.171292_121.386725,31.171498_121.386911,31.170642_121.387107,31.169866_121.385262,31.169409_121.384312,31.169173_121.383728,31.169023_121.382983,31.170703"
310115,昌邑路600号正门浦东大道599号,上海市,B00156NZYE,31.24114,121.522226,万源晶典公寓,"121.522526,31.240883_121.52194,31.240852_121.521934,31.241394_121.522054,31.241411_121.522503,31.241428_121.522526,31.240883"
310115,东绣路999弄1号,上海市,B0FFFWQ437,31.201932,121.537114,万源杰座苑,"121.536591,31.201538_121.53668,31.200813_121.537646,31.200841_121.537713,31.200841_121.537721,31.201704_121.537731,31.202039_121.537825,31.20266_121.537828,31.202711_121.537823,31.202754_121.537756,31.202819_121.537707,31.202844_121.537643,31.202881_121.536946,31.202979_121.536705,31.202959_121.536253,31.202382_121.536591,31.201538"
310110,江浦路740弄1-35号,上海市,B00153C72A,31.262447,121.525729,万登花苑,"121.524757,31.262431_121.524923,31.262188_121.525178,31.262047_121.525368,31.261819_121.525415,31.261799_121.525462,31.2618_121.526603,31.262327_121.526074,31.263208_121.525631,31.263007_121.525722,31.262869_121.524757,31.262431"
310116,龙轩路1000弄(蒙山北路),上海市,B0FFFTDOQC,30.751775,121.336019,万盛金邸西区,"121.334283,30.752886_121.335732,30.749867_121.335893,30.749844_121.337642,30.750383_121.336638,30.752531_121.337127,30.752711_121.336671,30.753712_121.334283,30.752886"
310116,龙轩路866号,上海市,B00157HRIZ,30.752687,121.338986,万盛金邸东区,"121.33808,30.752354_121.337365,30.753866_121.337388,30.753952_121.339127,30.754545_121.339223,30.754496_121.34063,30.751433_121.338774,30.75081_121.33808,30.752354"
310112,新龙路1333弄,上海市,B0FFHEFP55,31.150617,121.336843,万科·七宝国际2期,"121.336799,31.151931_121.334568,31.150821_121.334783,31.150465_121.334648,31.150375_121.335171,31.149503_121.335079,31.149338_121.335489,31.148737_121.335641,31.148815_121.337253,31.14951_121.33778,31.149734_121.338291,31.149991_121.338707,31.150201_121.338933,31.150299_121.339085,31.150422_121.339091,31.150531_121.338873,31.150847_121.339086,31.150969_121.338618,31.151625_121.338133,31.152339_121.33805,31.1524_121.337959,31.15242_121.337851,31.152406_121.337751,31.152376_121.336799,31.151931"
310112,漕宝路3366号,上海市,B0FFF3ATUI,31.154616,121.350323,七宝万科广场,"121.348878,31.154751_121.348896,31.154719_121.349772,31.153246_121.349793,31.153235_121.349818,31.153231_121.349838,31.153233_121.349865,31.153242_121.350565,31.153616_121.351753,31.154418_121.351768,31.154437_121.351779,31.15446_121.35178,31.154483_121.35177,31.154509_121.350997,31.155865_121.350945,31.155929_121.350922,31.155947_121.350892,31.155962_121.35087,31.155971_121.350847,31.155973_121.350819,31.155965_121.34891,31.154924_121.348884,31.154894_121.348869,31.154866_121.348863,31.154836_121.348864,31.15481_121.348868,31.15478_121.348878,31.154751"
310115,杨南路1705弄,上海市,B00156YLA3,31.155984,121.5148,万科五玠坊,"121.51332,31.15417_121.513329,31.154161_121.513348,31.154153_121.513368,31.154152_121.513388,31.154152_121.513425,31.154156_121.517503,31.155238_121.517513,31.155243_121.517528,31.155251_121.517537,31.155264_121.517542,31.155279_121.517543,31.155291_121.517544,31.155302_121.517543,31.155317_121.516235,31.157639_121.51622,31.157648_121.516206,31.157653_121.516189,31.157656_121.51617,31.157657_121.516141,31.157657_121.512293,31.156744_121.512275,31.156737_121.512259,31.156727_121.512252,31.156713_121.512251,31.156691_121.51332,31.15417"
310112,中春路8888弄万科桂馨苑附近,上海市,B00155L4BN,31.157371,121.337998,城市花园新区优诗美地,"121.33991,31.158552_121.339963,31.158522_121.340011,31.158519_121.341313,31.156411_121.340602,31.156024_121.340469,31.155863_121.339569,31.155235_121.339294,31.155073_121.33864,31.154662_121.337953,31.154288_121.337609,31.154065_121.337422,31.154052_121.336382,31.155517_121.336112,31.155952_121.334833,31.15816_121.335763,31.15857_121.33544,31.159214_121.33655,31.15974_121.337177,31.160072_121.338151,31.160474_121.338815,31.160395_121.339912,31.158634_121.33991,31.158552"
310112,富卓路789弄,上海市,B0FFG8PY8I,31.025108,121.380568,万科公园大道,"121.378549,31.026027_121.378544,31.026046_121.378545,31.026057_121.378552,31.026066_121.378564,31.026073_121.379224,31.026298_121.37975,31.026485_121.38053,31.026746_121.381112,31.026947_121.38117,31.026943_121.381225,31.026926_121.381253,31.026903_121.381289,31.026844_121.381418,31.026542_121.38249,31.024147_121.382494,31.024106_121.38248,31.024075_121.38246,31.024051_121.38242,31.024027_121.382372,31.024009_121.380797,31.023601_121.379864,31.023379_121.379846,31.023375_121.379831,31.023375_121.379821,31.023379_121.379811,31.023393_121.378549,31.026027"
310112,华漕镇运乐路777弄,上海市,B00156Z238,31.20459,121.275856,兰乔圣菲北区,"121.27602,31.207419_121.279552,31.202606_121.279529,31.202473_121.276571,31.200722_121.276523,31.200695_121.276466,31.20069_121.276406,31.200709_121.276371,31.200759_121.274595,31.203579_121.272818,31.206419_121.27602,31.207419"
310104,漕宝路77弄之1-47号,上海市,B00155LRG0,31.169297,121.428185,华尔兹花园,"121.429018,31.170431_121.429099,31.170421_121.429142,31.170312_121.429158,31.170154_121.429184,31.170139_121.429271,31.170095_121.429332,31.170041_121.429348,31.169983_121.429406,31.169757_121.429456,31.169391_121.429475,31.169053_121.429538,31.168295_121.428965,31.168263_121.427631,31.1681_121.427567,31.168423_121.427183,31.168395_121.427145,31.168427_121.427107,31.168471_121.427148,31.168633_121.427132,31.168664_121.42706,31.168707_121.426822,31.168719_121.426821,31.169593_121.426829,31.169731_121.426866,31.169856_121.426838,31.170126_121.426845,31.170159_121.426851,31.170179_121.426905,31.170193_121.426985,31.170215_121.427308,31.17027_121.427549,31.170316_121.427765,31.17034_121.42811,31.170385_121.428297,31.170418_121.428589,31.170449_121.429021,31.170442_121.429018,31.170431"
310120,国顺路668弄,上海市,B0FFFWYPV4,30.931083,121.453999,万科南桥传奇,"121.45257,30.931824_121.454555,30.932422_121.455435,30.930365_121.453445,30.92973_121.45257,30.931824"
310113,镇泰路111弄1-159号,上海市,B00155QPAR,31.381851,121.445015,万科四季花城南区,"121.447238,31.38093_121.447001,31.38075_121.446909,31.380628_121.446879,31.380505_121.446864,31.380387_121.446906,31.380268_121.446963,31.380176_121.445904,31.379479_121.445556,31.380148_121.445053,31.379965_121.444599,31.380882_121.44238,31.380044_121.442308,31.380195_121.442273,31.380388_121.442268,31.380648_121.442239,31.38112_121.442152,31.381468_121.442104,31.381669_121.442035,31.38187_121.441959,31.382061_121.441798,31.382389_121.443939,31.383185_121.446724,31.384257_121.447824,31.38131_121.447238,31.38093"
310113,竹艺路88弄1-45号,上海市,B0FFGMS1X6,31.388273,121.444183,万科四季花城别墅,"121.443407,31.388358_121.443439,31.388446_121.44472,31.388944_121.444861,31.388929_121.445087,31.388522_121.445097,31.388329_121.445031,31.388242_121.443513,31.387511_121.443459,31.387517_121.443391,31.387603_121.443412,31.387979_121.443407,31.388123_121.443407,31.388358"
310113,松兰路1169弄1-132号,上海市,B00156CM2Z,31.385763,121.444012,万科四季花城北区,"121.441615,31.382573_121.441335,31.383086_121.441124,31.383364_121.441135,31.383429_121.440953,31.38392_121.440532,31.38472_121.441843,31.385579_121.443166,31.386396_121.443663,31.38669_121.444523,31.387126_121.445384,31.38756_121.446139,31.385649_121.446233,31.385434_121.446372,31.385135_121.446461,31.384914_121.446646,31.384428_121.445099,31.383857_121.441615,31.382573"
310112,银春路2200弄,上海市,B0FFF002NC,31.026795,121.386322,万科城(华宁路),"121.388872,31.025692_121.388819,31.025624_121.388761,31.025592_121.384991,31.024623_121.384929,31.024625_121.384864,31.024652_121.384833,31.024692_121.383831,31.02775_121.383921,31.027895_121.387573,31.029119_121.388869,31.025774_121.388872,31.025692"
310112,中春路8889弄1号,上海市,B00156GXG2,31.153221,121.334995,万科城花新园,"121.337474,31.15277_121.334542,31.150868_121.334054,31.151635_121.334115,31.151664_121.334007,31.151841_121.333943,31.151818_121.332485,31.154167_121.33388,31.154802_121.334179,31.154959_121.334606,31.154895_121.334606,31.154701_121.334716,31.154679_121.33487,31.154743_121.335207,31.154895_121.33581,31.155163_121.336843,31.153728_121.337535,31.152864_121.337474,31.15277"
310112,畹町路99弄B,上海市,B00155LNWA,31.102382,121.401161,春申万科城3期,"121.401247,31.103528_121.399981,31.10311_121.400679,31.101557_121.400818,31.101456_121.400942,31.101415_121.401066,31.101405_121.402594,31.101893_121.402215,31.102763_121.402093,31.102764_121.402015,31.102735_121.401959,31.102674_121.402122,31.10226_121.401821,31.102182_121.401666,31.102242_121.401556,31.102337_121.401483,31.102485_121.401343,31.102784_121.401331,31.102818_121.401297,31.102944_121.401446,31.103037_121.401247,31.103528"
310112,江榉路588弄,上海市,B00156IJ3V,31.104269,121.485842,万科早城,"121.488317,31.105241_121.488433,31.104975_121.488452,31.104896_121.488434,31.10479_121.48837,31.104734_121.483462,31.103324_121.483346,31.103344_121.483273,31.103399_121.483254,31.103787_121.488317,31.105241"
310112,七莘路3333号,上海市,B00155R1BY,31.15895,121.342852,万科城市花园(吴中路),"121.340362,31.161815_121.338841,31.16091_121.339345,31.160095_121.339916,31.159143_121.340372,31.158381_121.340917,31.157497_121.34151,31.156524_121.341802,31.156659_121.342054,31.156832_121.342282,31.157091_121.34229,31.157353_121.342414,31.157463_121.343324,31.157356_121.343267,31.156984_121.343161,31.156399_121.343134,31.156277_121.342749,31.156171_121.342477,31.15595_121.342528,31.155839_121.34244,31.155716_121.342188,31.155488_121.342157,31.155457_121.342498,31.154899_121.342525,31.154875_121.343961,31.155539_121.344754,31.155962_121.345099,31.156128_121.345119,31.156172_121.345156,31.156185_121.345239,31.156216_121.344971,31.156586_121.345124,31.157323_121.345073,31.157441_121.345253,31.157874_121.346361,31.158325_121.345885,31.159186_121.344978,31.160771_121.344212,31.162152_121.344105,31.162111_121.34406,31.162138_121.343887,31.162062_121.342849,31.161613_121.342491,31.161471_121.342308,31.161452_121.342119,31.16131_121.342041,31.161208_121.342023,31.16086_121.342029,31.160744_121.341893,31.160496_121.341636,31.160497_121.341294,31.160475_121.341224,31.160493_121.341156,31.160529_121.340948,31.160872_121.340402,31.161836_121.340362,31.161815"
310115,康桥镇秀沿路1弄77号,上海市,B001557WGD,31.132966,121.543577,提香别墅,"121.54743,31.134747_121.54788,31.132843_121.547976,31.1325_121.547964,31.132427_121.547931,31.132379_121.547859,31.132356_121.54669,31.132102_121.546401,31.132031_121.546251,31.132002_121.546031,31.131984_121.545323,31.131846_121.544578,31.1317_121.544142,31.131617_121.543994,31.132205_121.543268,31.1321_121.54322,31.132071_121.543345,31.131538_121.543205,31.131535_121.543103,31.131486_121.54297,31.131365_121.542929,31.131356_121.542811,31.131337_121.542052,31.131192_121.541463,31.131083_121.540996,31.131002_121.54094,31.131004_121.540889,31.131035_121.540736,31.13133_121.540455,31.131844_121.540189,31.132363_121.539887,31.132954_121.539599,31.133529_121.53947,31.133775_121.539462,31.133829_121.539484,31.13388_121.539972,31.134151_121.540134,31.134242_121.540291,31.134277_121.540481,31.134291_121.540659,31.134308_121.54081,31.134368_121.541031,31.134465_121.54113,31.134509_121.541256,31.134508_121.541471,31.13451_121.541641,31.13455_121.541767,31.134577_121.541883,31.134581_121.542007,31.134538_121.542228,31.134358_121.542297,31.134277_121.542425,31.134194_121.542675,31.134091_121.54286,31.134046_121.542986,31.133835_121.543015,31.133683_121.54302,31.133535_121.543011,31.133465_121.543115,31.133424_121.543249,31.133433_121.543406,31.133623_121.543427,31.133737_121.543449,31.133861_121.54347,31.133961_121.543535,31.134039_121.543684,31.134127_121.54389,31.134211_121.544067,31.134275_121.54423,31.134316_121.544338,31.13436_121.544407,31.134343_121.544436,31.134298_121.544456,31.134191_121.54445,31.134052_121.544454,31.133968_121.544474,31.133894_121.544526,31.133822_121.544617,31.133782_121.544741,31.133769_121.545024,31.133783_121.54518,31.133783_121.545304,31.133877_121.54534,31.133993_121.545412,31.134051_121.545527,31.134134_121.545574,31.134185_121.545651,31.13422_121.545726,31.134221_121.545837,31.134182_121.545932,31.134167_121.546267,31.134214_121.546495,31.13425_121.54665,31.134318_121.546842,31.134417_121.546944,31.134521_121.547129,31.134753_121.547224,31.134814_121.547312,31.134843_121.547388,31.134829_121.54743,31.134747"
310115,高青路2878弄1-69号,上海市,B00156TLWM,31.159797,121.530375,上海万科新里程歌雅花园,"121.531564,31.16139_121.531733,31.161182_121.53235,31.160406_121.533206,31.159293_121.533284,31.159151_121.533269,31.159055_121.533204,31.158967_121.532485,31.158663_121.532443,31.158726_121.532389,31.158838_121.532284,31.159028_121.532241,31.159082_121.531376,31.158937_121.53109,31.158914_121.530476,31.158876_121.529956,31.158781_121.529491,31.158632_121.528523,31.158253_121.528443,31.158263_121.528347,31.158383_121.527453,31.159679_121.528415,31.159957_121.528263,31.160371_121.530764,31.161295_121.531262,31.161477_121.531357,31.161488_121.531436,31.161492_121.5315,31.161454_121.531564,31.16139"
310112,申长路1209弄,上海市,B0015794YY,31.202304,121.311474,万科时1区,"121.309422,31.202739_121.310093,31.20283_121.31012,31.202837_121.310143,31.20285_121.31016,31.202873_121.310163,31.202892_121.30998,31.20394_121.309982,31.203956_121.309987,31.20397_121.310001,31.203977_121.310021,31.203982_121.310957,31.204114_121.313029,31.20429_121.313057,31.204287_121.313089,31.204277_121.313119,31.204255_121.313137,31.20423_121.31315,31.204204_121.313156,31.204177_121.313251,31.203106_121.313425,31.200984_121.313416,31.200958_121.3134,31.20093_121.313381,31.200912_121.313351,31.200899_121.309912,31.200345_121.309874,31.200341_121.309839,31.200343_121.309802,31.200353_121.309778,31.20037_121.309763,31.200398_121.309541,31.201507_121.309316,31.202613_121.309314,31.202636_121.309314,31.202661_121.309328,31.202692_121.309348,31.202713_121.309378,31.202726_121.309422,31.202739"
310112,泰虹路168弄,上海市,B0FFH0M0YS,31.20225,121.310368,万科时1区4期,"121.309428,31.202722_121.311201,31.202975_121.311372,31.201928_121.311367,31.201853_121.311308,31.201768_121.309549,31.201531_121.309337,31.202606_121.309428,31.202722"
310112,申郑路18弄1-22号,上海市,B0FFG95JDN,31.203706,121.312203,万科时1区1期,"121.311371,31.203161_121.311304,31.203231_121.311204,31.20399_121.311207,31.204055_121.311258,31.204098_121.312966,31.204264_121.313067,31.204246_121.313125,31.204183_121.313187,31.203385_121.313106,31.203307_121.31147,31.203142_121.311371,31.203161"
310112,兴虹路299弄,上海市,B0FFFZR3ZW,31.202504,121.312328,万科时1区2期,"121.311445,31.202007_121.311382,31.20237_121.311296,31.202993_121.312984,31.20317_121.313134,31.20317_121.31323,31.203096_121.313318,31.202083_121.313281,31.20203_121.312851,31.201928_121.31149,31.201839_121.311445,31.202007"
310112,兴虹路368弄,上海市,B0FFGXY4U8,31.203546,121.31057,万科时1区3期,"121.30999,31.203966_121.310958,31.204091_121.311025,31.20403_121.311127,31.203237_121.311028,31.203104_121.310156,31.202982_121.30999,31.203966"
310112,新龙路1111弄,上海市,B00155BJYK,31.152808,121.340985,万科·朗润园,"121.338621,31.152764_121.338617,31.152785_121.338617,31.152802_121.338621,31.15282_121.338649,31.152842_121.338959,31.152994_121.339824,31.153409_121.34134,31.15416_121.34216,31.154594_121.342182,31.154603_121.342197,31.154608_121.342213,31.154608_121.342225,31.154608_121.342242,31.1546_121.34232,31.154515_121.342756,31.153871_121.343286,31.15303_121.343291,31.153009_121.343291,31.15298_121.343278,31.152943_121.343248,31.152907_121.343201,31.152878_121.342307,31.152342_121.342292,31.152336_121.342281,31.152336_121.342264,31.152343_121.34219,31.152395_121.342167,31.152404_121.342136,31.152406_121.342114,31.152402_121.341175,31.151901_121.341165,31.151893_121.341153,31.151875_121.341152,31.151859_121.34116,31.151837_121.341447,31.15144_121.34145,31.151416_121.341443,31.151395_121.341427,31.151373_121.340834,31.151068_121.340806,31.151065_121.340784,31.151064_121.340756,31.151067_121.34073,31.15108_121.340488,31.151419_121.340475,31.151433_121.340461,31.15144_121.340437,31.151442_121.34041,31.15144_121.339828,31.151146_121.33981,31.151143_121.339795,31.151142_121.339776,31.151145_121.339761,31.151153_121.339521,31.151513_121.338621,31.152764"
310117,淡家浜街88弄,上海市,B001572UU3,31.061709,121.244033,万科梦想派,"121.242157,31.061246_121.242037,31.061446_121.242581,31.06238_121.242884,31.062944_121.243181,31.063016_121.246007,31.061925_121.246065,31.061687_121.245731,31.061209_121.245388,31.060627_121.245209,31.060509_121.242157,31.061246"
310115,御桥路1679弄之1-38号,上海市,B00156PN32,31.159219,121.567371,万科·海上传奇御桥河滨苑,"121.56445,31.156845_121.566277,31.157264_121.569429,31.157976_121.571517,31.158402_121.57251,31.158639_121.572523,31.158647_121.572528,31.158658_121.572528,31.15867_121.572525,31.158679_121.571833,31.159741_121.571825,31.159748_121.57181,31.159752_121.571797,31.159752_121.571782,31.159748_121.571235,31.159598_121.5712,31.159593_121.571171,31.159604_121.571158,31.15962_121.571152,31.159643_121.570897,31.160671_121.570889,31.160687_121.570881,31.160698_121.570868,31.160703_121.570846,31.160702_121.56855,31.160201_121.568532,31.1602_121.568508,31.160205_121.568494,31.160215_121.568483,31.160231_121.568261,31.161154_121.568242,31.16119_121.568207,31.161211_121.568167,31.16122_121.568135,31.16122_121.565823,31.16106_121.565034,31.161202_121.56387,31.161057_121.563822,31.161037_121.563789,31.161007_121.563768,31.16097_121.563768,31.160924_121.564289,31.156922_121.564308,31.156895_121.56434,31.156865_121.564375,31.156849_121.564412,31.156842_121.56445,31.156845"
310115,沪南路2199号,上海市,B0FFI5KLCO,31.159413,121.565302,万科·海上传奇御桥芳澜苑,"121.564795,31.160518_121.565305,31.160555_121.565353,31.160507_121.565428,31.160231_121.565517,31.159729_121.565616,31.159437_121.565822,31.15907_121.565849,31.159006_121.56571,31.158765_121.565592,31.158469_121.565546,31.158251_121.565487,31.158241_121.565139,31.158156_121.565141,31.158216_121.565149,31.158707_121.565117,31.159164_121.565104,31.159281_121.564996,31.159619_121.56483,31.160208_121.564766,31.16041_121.564734,31.160486_121.564795,31.160518"
310115,御桥路1949号,上海市,B0FFG61PWG,31.159082,121.571881,万科2049海上传奇,"121.571355,31.159603_121.571361,31.15962_121.571374,31.159631_121.571402,31.159639_121.571782,31.159743_121.571805,31.159742_121.57182,31.159741_121.571832,31.159733_121.571848,31.159712_121.572288,31.159026_121.572502,31.158703_121.572518,31.158679_121.572519,31.158663_121.572513,31.158653_121.572505,31.158642_121.571851,31.158497_121.571808,31.158503_121.571784,31.15851_121.571752,31.158522_121.571716,31.158557_121.57168,31.158635_121.571588,31.158891_121.571357,31.159573_121.571355,31.159603"
310115,新环东路99号,上海市,B00156DWS3,31.024297,121.65645,万科清林径,"121.655789,31.02559_121.658039,31.02577_121.658119,31.025756_121.658171,31.025714_121.658209,31.025661_121.658211,31.024398_121.658239,31.023354_121.658204,31.023259_121.658096,31.023181_121.657019,31.02301_121.65647,31.022932_121.655015,31.022738_121.654934,31.022749_121.65487,31.022771_121.654798,31.022866_121.654652,31.025304_121.654669,31.025416_121.65475,31.025474_121.655789,31.02559"
310112,景联路1111弄,上海市,B00156FI64,31.095469,121.427577,万科燕南园(景联路),"121.429868,31.09444_121.429057,31.094095_121.42823,31.093673_121.426921,31.093102_121.42617,31.092778_121.4258,31.09345_121.425388,31.094443_121.424489,31.096727_121.424569,31.096798_121.424602,31.096827_121.427335,31.097526_121.427526,31.096911_121.428667,31.097222_121.428624,31.097346_121.42981,31.097689_121.42992,31.097342_121.430303,31.096228_121.430423,31.09568_121.430624,31.095127_121.430695,31.094768_121.429868,31.09444"
310113,抚远路538弄罗迎路150号,上海市,B00155NMOQ,31.397967,121.363857,万科琥珀臻园,"121.366181,31.395966_121.365707,31.396033_121.365664,31.396065_121.365364,31.395818_121.362303,31.398139_121.361239,31.398955_121.361243,31.399133_121.36139,31.399333_121.362918,31.399813_121.365313,31.398078_121.365462,31.397918_121.365578,31.397768_121.366181,31.395966"
310113,美艾路177号,上海市,B00156GXHP,31.392998,121.363072,万科琥珀郡园,"121.359798,31.391946_121.359788,31.391934_121.359782,31.391919_121.359782,31.391906_121.359788,31.391891_121.360197,31.39109_121.360204,31.391084_121.360224,31.391081_121.360241,31.391081_121.360264,31.391085_121.36443,31.392625_121.366372,31.393362_121.366399,31.393376_121.366415,31.393391_121.36642,31.393417_121.36642,31.393448_121.366107,31.394509_121.366093,31.394543_121.366061,31.394606_121.365814,31.394872_121.365786,31.394883_121.36575,31.394888_121.365707,31.394887_121.365671,31.394881_121.359875,31.392758_121.35986,31.392747_121.359849,31.39273_121.359845,31.392708_121.359844,31.392692_121.360119,31.392089_121.360116,31.39207_121.360105,31.39206_121.36009,31.392051_121.359798,31.391946"
310115,民雷路757弄1-337号,上海市,B00155NMEE,31.27027,121.670489,万科第五园,"121.668944,31.271008_121.669018,31.270836_121.669141,31.270347_121.667812,31.270119_121.667871,31.269623_121.66816,31.26874_121.67003,31.269085_121.672586,31.26958_121.672398,31.270073_121.672536,31.270121_121.673026,31.270352_121.672705,31.271006_121.671927,31.272127_121.671441,31.271907_121.671374,31.271826_121.671366,31.271737_121.670304,31.27125_121.670143,31.271516_121.668944,31.271008"
310117,仓华路675号,上海市,B00157GPV7,31.014442,121.190713,万科红人馆,"121.190965,31.015921_121.190675,31.015926_121.19068,31.014956_121.190353,31.014942_121.190358,31.013365_121.190879,31.01337_121.191029,31.013522_121.190965,31.015921"
310112,诸新路377弄1-200号,上海市,B00156DBP9,31.20992,121.285608,万科红郡2期,"121.285595,31.210835_121.284098,31.210227_121.284117,31.210185_121.285472,31.208942_121.286842,31.209596_121.287132,31.209736_121.287156,31.209791_121.287156,31.209821_121.285595,31.210835"
310112,诸新路388弄1-200号,上海市,B00156Z1Y6,31.210642,121.2874,万科红郡1期,"121.285841,31.210932_121.287328,31.211528_121.287383,31.21155_121.287431,31.211553_121.287492,31.211525_121.28885,31.21067_121.287791,31.209569_121.285809,31.210806_121.285791,31.210848_121.285806,31.210896_121.285841,31.210932"
310115,高青路2861弄119号,上海市,B00155LHHU,31.161955,121.528506,万科金色里程歌雅花园,"121.531045,31.161956_121.531017,31.161923_121.53026,31.161628_121.529497,31.161317_121.528794,31.161013_121.528271,31.160838_121.527628,31.160672_121.527136,31.160577_121.526961,31.160621_121.526828,31.160701_121.526719,31.160844_121.526044,31.161978_121.526065,31.16204_121.528537,31.16298_121.529125,31.163218_121.52973,31.163428_121.529835,31.16341_121.529903,31.163359_121.530178,31.163019_121.530635,31.162491_121.531029,31.162045_121.531051,31.162009_121.531045,31.161956"
310112,江桃路556号,上海市,B00155Q424,31.10658,121.48528,翡翠别墅(浦锦路),"121.483849,31.108453_121.484032,31.107931_121.48544,31.108345_121.485228,31.108898_121.48654,31.109264_121.486609,31.109257_121.486674,31.109203_121.487984,31.105399_121.485025,31.104564_121.483291,31.104055_121.483128,31.10643_121.483033,31.108283_121.483793,31.108503_121.483849,31.108453"
310115,昌邑路1500号(近桃林路),上海市,B0FFF3IV2U,31.244162,121.537345,万科翡翠滨江,"121.535175,31.242743_121.53518,31.242736_121.535192,31.242731_121.535207,31.24273_121.535226,31.242731_121.537806,31.243454_121.537818,31.243461_121.537825,31.24347_121.537829,31.243482_121.537829,31.243492_121.537826,31.243501_121.537657,31.243974_121.537655,31.243982_121.537655,31.24399_121.537659,31.243998_121.537671,31.244006_121.538616,31.244244_121.538621,31.244244_121.538628,31.244242_121.538635,31.244239_121.538643,31.244228_121.538701,31.244057_121.53877,31.244072_121.538864,31.243827_121.538874,31.243819_121.538887,31.243817_121.5389,31.243817_121.538919,31.243819_121.539442,31.244015_121.539608,31.244149_121.539619,31.244157_121.539626,31.244166_121.539627,31.244177_121.539627,31.244189_121.539588,31.244318_121.539012,31.245356_121.539003,31.245366_121.538992,31.245374_121.538979,31.245376_121.538962,31.245376_121.538944,31.245376_121.537715,31.245114_121.53581,31.244601_121.535799,31.244595_121.535789,31.244587_121.535781,31.244576_121.535776,31.244563_121.535772,31.244548_121.535768,31.244533_121.535933,31.243489_121.535932,31.243482_121.535929,31.243475_121.535921,31.243468_121.535913,31.243463_121.535026,31.243221_121.535018,31.243217_121.535012,31.243212_121.535012,31.243202_121.535013,31.243189_121.535175,31.242743"
310115,昌邑路1669号,上海市,B0FFHCOTAI,31.247225,121.541747,万科翡翠滨江2期,"121.5402,31.24652_121.540556,31.245985_121.540699,31.246029_121.540988,31.24614_121.541446,31.246351_121.542007,31.246679_121.542751,31.247225_121.543138,31.247481_121.543162,31.247565_121.543148,31.247653_121.542519,31.248354_121.54246,31.248365_121.542392,31.248365_121.541192,31.247737_121.540807,31.247575_121.541174,31.247033_121.541211,31.246978_121.540802,31.246772_121.5402,31.24652"
310106,止园路189号,上海市,B0FFFZJXXO,31.25761,121.472032,万科翡翠雅宾利,"121.472725,31.256993_121.472525,31.256754_121.472351,31.256606_121.472172,31.256485_121.471789,31.256337_121.471243,31.256221_121.471042,31.256299_121.471019,31.256405_121.47088,31.256726_121.470656,31.257119_121.470399,31.257601_121.470401,31.257655_121.470404,31.257694_121.470425,31.25773_121.470455,31.257761_121.470495,31.257786_121.471248,31.258207_121.471521,31.258331_121.472294,31.258702_121.472862,31.258976_121.47315,31.258898_121.473306,31.258659_121.473515,31.258446_121.473705,31.258303_121.47372,31.258269_121.473724,31.258234_121.47372,31.258188_121.473716,31.258154_121.473697,31.258115_121.472994,31.257317_121.472725,31.256993"
310115,曹路镇金海路3333号,上海市,B0FFFD5S5U,31.271239,121.66495,蓝山小区,"121.663368,31.267775_121.663245,31.267809_121.662437,31.270406_121.661627,31.273359_121.666022,31.274748_121.666373,31.273994_121.666879,31.274141_121.667368,31.27304_121.667589,31.27263_121.6678,31.272022_121.667834,31.271729_121.667839,31.271373_121.667706,31.270798_121.667585,31.270128_121.667647,31.269761_121.667689,31.269452_121.667928,31.268701_121.663368,31.267775"
310115,济阳路333弄1-11号,上海市,B00155MPE0,31.161458,121.483413,万科·金色公馆,"121.484136,31.160961_121.48306,31.160779_121.482623,31.161893_121.483834,31.162146_121.484136,31.160961"
310117,乐都西路1558弄,上海市,B00156EK88,31.014746,121.189535,万科金色华亭,"121.190325,31.014988_121.190348,31.013399_121.18859,31.013384_121.188609,31.01601_121.190665,31.015986_121.190663,31.015_121.190325,31.014988"
310115,成山路453弄,上海市,B00156TM2P,31.171821,121.507048,万科金色国际公寓,"121.506053,31.172086_121.506146,31.171583_121.506777,31.171611_121.506824,31.171419_121.506867,31.171381_121.506954,31.171359_121.507881,31.171446_121.507752,31.172265_121.506053,31.172086"
310115,北蔡镇御水路150弄万科金色城市二期,上海市,B0FFF9ZWDN,31.161036,121.572289,万科金色城市2期悦庭,"121.573146,31.162434_121.570751,31.161762_121.571188,31.160236_121.571354,31.159715_121.573074,31.160073_121.573849,31.160245_121.573146,31.162434"
310115,三林路1300弄之1-63号,上海市,B00155LCD4,31.143835,121.518125,万科金色雅筑,"121.517447,31.142355_121.51719,31.142726_121.516707,31.143453_121.516218,31.144219_121.516166,31.144358_121.518616,31.145087_121.518762,31.145106_121.519007,31.144956_121.519237,31.144778_121.519686,31.14424_121.520093,31.143751_121.520114,31.143688_121.520097,31.143621_121.520017,31.14354_121.519077,31.143099_121.517447,31.142355"
310118,赵巷镇镇泽路18弄,上海市,B00156E3W9,31.160985,121.198553,万科锦源,"121.196938,31.161949_121.197027,31.162044_121.197887,31.16226_121.198005,31.162121_121.198091,31.162069_121.198225,31.162017_121.198469,31.161944_121.198631,31.161951_121.198716,31.161916_121.198789,31.16183_121.198823,31.161771_121.198833,31.161723_121.199142,31.161444_121.1998,31.160951_121.199854,31.160831_121.199974,31.160739_121.200126,31.160615_121.200283,31.160387_121.200365,31.160264_121.200449,31.160109_121.198215,31.159779_121.198229,31.159876_121.198279,31.160162_121.198233,31.160379_121.198065,31.160629_121.197892,31.160751_121.197723,31.160802_121.197536,31.160824_121.197398,31.160813_121.197295,31.160799_121.196996,31.161675_121.196954,31.161826_121.196938,31.161949"
310112,七宝镇,上海市,B00155DL7M,31.154236,121.33961,魅力之城,"121.341351,31.154544_121.341465,31.15435_121.340636,31.153903_121.339227,31.153217_121.338423,31.152846_121.33765,31.153923_121.338464,31.154398_121.339085,31.154718_121.339236,31.154668_121.33929,31.15471_121.339285,31.154857_121.339465,31.155016_121.340613,31.155779_121.34093,31.155224_121.341351,31.154544"
310114,塔山路455弄、452弄、399弄、398弄,上海市,B0015789M4,31.283002,121.178527,万立城,"121.175918,31.282555_121.176353,31.282532_121.176803,31.282481_121.177069,31.282424_121.177587,31.282289_121.17824,31.282022_121.178792,31.281712_121.179393,31.281263_121.179527,31.281121_121.180246,31.281465_121.180943,31.281868_121.181276,31.282244_121.181523,31.283592_121.180159,31.283827_121.178885,31.284018_121.178505,31.284064_121.177504,31.284213_121.176474,31.284383_121.176189,31.284425_121.175861,31.28444_121.175559,31.284431_121.175485,31.284404_121.175452,31.284347_121.175441,31.284246_121.17544,31.283866_121.175445,31.283691_121.1755,31.28325_121.175572,31.282849_121.175614,31.282665_121.175778,31.282579_121.175918,31.282555"
310114,安悦路92弄,上海市,B0FFG77DXA,31.283482,121.179287,瑞立万立城汽车公馆,"121.178958,31.283982_121.179893,31.283852_121.179663,31.282937_121.178784,31.283119_121.178737,31.283152_121.178701,31.283199_121.178859,31.283947_121.178915,31.283978_121.178958,31.283982"
310106,万航渡路676弄50-56号,上海市,B00152C2EC,31.225806,121.43173,万航公寓,"121.431996,31.225499_121.431692,31.22533_121.431448,31.225588_121.431196,31.225882_121.431789,31.22629_121.432015,31.226044_121.432171,31.225865_121.432161,31.225685_121.431996,31.225499"
310105,万航渡路1278弄之1-2号,上海市,B00155L3IS,31.226766,121.423048,万航小区,"121.422422,31.226377_121.42263,31.226246_121.422697,31.226316_121.42276,31.226283_121.422964,31.226306_121.423025,31.226261_121.423111,31.226396_121.423627,31.227059_121.423621,31.227108_121.423184,31.227362_121.422422,31.226377"
310106,静安万航渡路433弄,上海市,B0FFF4WO9G,31.225485,121.436411,万航渡路433弄小区,"121.436423,31.225145_121.43668,31.225231_121.436569,31.225443_121.436488,31.225604_121.436412,31.225835_121.436181,31.225777_121.43625,31.225492_121.436423,31.225145"
310105,万航渡路2032弄之1-13号,上海市,B00155LY4S,31.222053,121.413371,万航渡路2032弄小区,"121.413278,31.221573_121.413246,31.221576_121.413117,31.2219_121.413117,31.222405_121.413063,31.222543_121.413393,31.222617_121.413598,31.222097_121.413775,31.221706_121.413626,31.221642_121.413278,31.221573"
310105,万航渡路1424弄之3-78号,上海市,B00155L3IH,31.224187,121.42248,华秀小区,"121.421457,31.224723_121.422087,31.224672_121.422098,31.224803_121.422717,31.224739_121.422669,31.224227_121.423476,31.224101_121.423522,31.224016_121.423157,31.223629_121.422715,31.223693_121.42198,31.223773_121.421945,31.223803_121.421966,31.224365_121.421854,31.224447_121.421711,31.224491_121.421489,31.224523_121.421457,31.224597_121.421457,31.224723"
310106,万航渡路249弄1-32号,上海市,B00155KKSU,31.226043,121.439714,万航渡路249弄小区,"121.439306,31.226389_121.43946,31.226443_121.439495,31.226383_121.439594,31.226413_121.4399,31.226058_121.440073,31.225812_121.440067,31.22578_121.440042,31.225744_121.439821,31.22565_121.439802,31.225649_121.439779,31.225662_121.439429,31.226256_121.439386,31.226248_121.439306,31.226389"
310106,万航渡路332弄之1-5号,上海市,B0FFF00GVI,31.225101,121.438657,万航渡路332弄小区,"121.438683,31.224676_121.438414,31.224548_121.437926,31.225405_121.43911,31.225411_121.439361,31.225407_121.439429,31.225341_121.43941,31.22523_121.438957,31.224855_121.438683,31.224676"
310106,万航渡路600,上海市,B0FFF5VOHV,31.225756,121.433436,万航渡路小学,"121.433521,31.226184_121.432875,31.225706_121.432942,31.225634_121.433239,31.2253_121.43406,31.225842_121.433521,31.226184"
310107,万航渡后路99号上海地方海事局,上海市,B00156PYWF,31.228751,121.424418,上海市地方海事局直属海事处,"121.424302,31.228625_121.424522,31.228711_121.424614,31.228759_121.424515,31.228882_121.424221,31.228738_121.424302,31.228625"
310106,万航渡路83号,上海市,B00155L3W5,31.224667,121.443505,金航大厦(万航渡路),"121.443899,31.224444_121.443712,31.224309_121.443118,31.224695_121.443107,31.224735_121.443122,31.224771_121.443454,31.225042_121.443482,31.225036_121.443899,31.224444"
310105,万航渡路2534号,上海市,B00155KW6K,31.219617,121.405681,强家渡小区,"121.405349,31.218708_121.405383,31.218913_121.405408,31.21932_121.405413,31.219375_121.405429,31.219532_121.405469,31.219801_121.405541,31.220111_121.405601,31.220444_121.406047,31.220403_121.405978,31.219868_121.405935,31.219571_121.405864,31.219402_121.405779,31.219149_121.405698,31.218842_121.405675,31.218693_121.405349,31.218708"
310106,灵石路737弄之1-36号、739弄1-12号,上海市,B00156ELV3,31.285391,121.436843,万荣小区,"121.435906,31.285511_121.435926,31.28546_121.436459,31.285565_121.436484,31.285591_121.436555,31.285604_121.436565,31.285628_121.437119,31.285706_121.437711,31.285727_121.437654,31.286008_121.438761,31.286168_121.438852,31.285666_121.438325,31.285595_121.438405,31.285185_121.438484,31.284786_121.437215,31.28462_121.436582,31.28454_121.435819,31.284313_121.435706,31.284526_121.435618,31.284759_121.435134,31.286045_121.435189,31.286082_121.435129,31.286315_121.435619,31.2864_121.43555,31.286824_121.436079,31.286862_121.436194,31.286281_121.435662,31.286175_121.435685,31.286061_121.435811,31.285784_121.435906,31.285511"
310106,灵石路733弄-735弄之1-28号,上海市,B00156GN3G,31.285216,121.439791,万荣东怡,"121.439775,31.286614_121.439818,31.286333_121.439898,31.285983_121.439992,31.285548_121.440313,31.285526_121.440495,31.28525_121.440715,31.284953_121.440859,31.284811_121.44144,31.284053_121.441409,31.283979_121.440461,31.283893_121.44049,31.283757_121.439376,31.283608_121.438688,31.287068_121.43869,31.287098_121.438709,31.287131_121.438746,31.28715_121.439654,31.28729_121.439677,31.287218_121.439775,31.286614"
310106,"灵石路733弄,灵石路735弄,灵石路737弄,灵石路739弄,彭越浦路800弄",上海市,B00156R110,31.284016,121.438829,万荣街坊,"121.438941,31.284768_121.439079,31.284035_121.439178,31.283457_121.438715,31.283391_121.438218,31.283318_121.437795,31.283263_121.437727,31.283697_121.438607,31.283817_121.438463,31.284704_121.438941,31.284768"
310106,灵石路739弄之13-59号,上海市,B00155L2BN,31.286411,121.437242,万荣新苑,"121.435869,31.285673_121.435829,31.285807_121.435708,31.286084_121.435693,31.28617_121.436205,31.286274_121.436086,31.286884_121.437794,31.287009_121.438556,31.287109_121.438586,31.287039_121.438759,31.286183_121.437211,31.285967_121.437228,31.285807_121.43633,31.285673_121.436311,31.285741_121.435869,31.285673"
310106,万荣路1050弄1-21号,上海市,B00150DEFA,31.289823,121.440818,万荣阳光苑,"121.440066,31.290491_121.44126,31.290731_121.441301,31.290711_121.441348,31.290661_121.441478,31.290179_121.441665,31.289378_121.440753,31.289215_121.440852,31.288742_121.440394,31.288656_121.440066,31.290491"
310104,虹漕南路杨家桥61-99号,上海市,B00155LC0W,31.162093,121.410807,万象园小区,"121.410654,31.161206_121.410444,31.16217_121.410065,31.162107_121.409904,31.162594_121.410931,31.162857_121.410967,31.162565_121.411026,31.162401_121.411431,31.16245_121.411453,31.162367_121.411493,31.162378_121.411672,31.161926_121.411527,31.161879_121.411159,31.161833_121.411275,31.161305_121.410654,31.161206"
310104,虹漕南路158弄万象园小区88号,上海市,B0FFGBXKFX,31.162663,121.411080,樱花园幼儿园北园,"121.411018,31.162562_121.41105,31.16241_121.411427,31.162463_121.411347,31.162801_121.410982,31.162752_121.411018,31.162562"
310101,南京西路399号明天广场1层、38层,上海市,B00156E31Q,31.230333,121.469621,上海明天广场JW万豪酒店,"121.46883,31.230628_121.468834,31.230642_121.468845,31.230655_121.468863,31.230669_121.469468,31.230742_121.469909,31.230792_121.46993,31.230792_121.469967,31.23078_121.470085,31.230677_121.470305,31.230212_121.470305,31.230182_121.470286,31.230142_121.470263,31.230118_121.469573,31.229745_121.469539,31.229746_121.469511,31.229756_121.469443,31.229806_121.469335,31.229905_121.469183,31.230181_121.468845,31.230591_121.46883,31.230628"
310116,龙皓路962、968号,上海市,B0FFG7VKSI,30.756039,121.33586,上海金山万达华府,"121.333204,30.755256_121.335012,30.755957_121.335698,30.756206_121.336152,30.75627_121.337472,30.756339_121.33841,30.756337_121.338515,30.755975_121.336267,30.755897_121.336048,30.755896_121.335883,30.755858_121.335725,30.755805_121.335358,30.755639_121.333402,30.754781_121.333204,30.755256"
310114,鹤友路338号,上海市,B00155QVDW,31.237162,121.32417,万达城市公寓,"121.325821,31.238295_121.325278,31.23691_121.324746,31.235657_121.324687,31.23564_121.324623,31.235631_121.323824,31.235731_121.32291,31.235766_121.322914,31.23632_121.32286,31.238156_121.32376,31.238343_121.324342,31.238462_121.324779,31.238511_121.32532,31.238507_121.325579,31.238468_121.32578,31.238399_121.325821,31.238295"
310115,年家浜路518号,上海市,B00155QNWL,31.114507,121.569542,万达广场(上海周浦店),"121.56801,31.114992_121.567995,31.114989_121.567986,31.114979_121.567979,31.114966_121.567977,31.114953_121.568189,31.113766_121.568196,31.113749_121.568216,31.113733_121.568241,31.113719_121.568272,31.113707_121.56832,31.113694_121.568352,31.113687_121.568389,31.113687_121.568411,31.113687_121.571122,31.114095_121.571144,31.114107_121.571156,31.114118_121.57117,31.114138_121.571179,31.114158_121.571182,31.114186_121.571182,31.114204_121.570876,31.115285_121.570862,31.115292_121.570846,31.115299_121.570822,31.115302_121.568737,31.115053_121.568706,31.115057_121.56864,31.115079_121.568613,31.115082_121.568579,31.115082_121.56801,31.114992"
310117,广富林路658号,上海市,B0FFF5SHH7,31.057538,121.242937,万达广场(松江店),"121.241299,31.057176_121.241317,31.057141_121.241343,31.057114_121.241378,31.057095_121.241412,31.05709_121.241962,31.057012_121.242412,31.056913_121.244378,31.056618_121.244417,31.056615_121.244446,31.056625_121.244469,31.056652_121.244477,31.056686_121.244521,31.057364_121.244522,31.057933_121.244521,31.05798_121.244521,31.058008_121.244508,31.058029_121.244489,31.058042_121.244461,31.058055_121.244416,31.05806_121.242478,31.058335_121.242296,31.058343_121.241404,31.05834_121.241359,31.05834_121.241328,31.058338_121.241304,31.058332_121.241288,31.058315_121.241282,31.05829_121.24128,31.058264_121.24129,31.05721_121.241299,31.057176"
310115,龙阳路1880弄,上海市,B00155IV4E,31.200879,121.553,万邦都市花园,"121.556216,31.2013_121.556214,31.201249_121.556206,31.201205_121.556194,31.201169_121.55618,31.201139_121.556161,31.201105_121.556138,31.201069_121.554734,31.200124_121.55426,31.199929_121.55275,31.199463_121.551946,31.199213_121.550281,31.198674_121.55026,31.19867_121.550238,31.198674_121.550214,31.198684_121.550196,31.198697_121.550181,31.198718_121.549764,31.199559_121.549311,31.200367_121.549267,31.200433_121.549258,31.200456_121.549256,31.200476_121.549271,31.200496_121.549299,31.200518_121.549337,31.200541_121.550481,31.201152_121.551291,31.201576_121.551464,31.20166_121.551486,31.201665_121.551507,31.201661_121.551522,31.201657_121.551533,31.201649_121.551547,31.201631_121.551572,31.201563_121.551615,31.201441_121.551649,31.20134_121.551668,31.201285_121.551701,31.201156_121.551736,31.200979_121.551769,31.200691_121.551794,31.200554_121.55184,31.200345_121.551891,31.200166_121.551902,31.200147_121.55192,31.200138_121.551946,31.200138_121.551963,31.200142_121.552033,31.200177_121.552101,31.200211_121.552476,31.200438_121.552545,31.200486_121.552598,31.200535_121.552631,31.200558_121.552669,31.200597_121.552706,31.200638_121.552787,31.200763_121.552831,31.200815_121.552955,31.201038_121.552986,31.201103_121.55306,31.201203_121.553151,31.201282_121.553287,31.201392_121.553299,31.20141_121.553303,31.201432_121.553303,31.201449_121.553287,31.20147_121.552854,31.201879_121.552747,31.201994_121.552737,31.202018_121.552728,31.202041_121.552695,31.202179_121.552686,31.202216_121.552682,31.20224_121.55268,31.202266_121.552684,31.202287_121.552704,31.202308_121.55303,31.202489_121.553297,31.202621_121.553657,31.202762_121.553948,31.202887_121.554389,31.203029_121.554704,31.203123_121.554741,31.203133_121.554761,31.203137_121.55479,31.203135_121.554819,31.203126_121.554872,31.203099_121.555155,31.20296_121.555446,31.202831_121.555467,31.20282_121.555493,31.202812_121.555518,31.20281_121.555805,31.202793_121.555835,31.202788_121.555858,31.20278_121.555887,31.202764_121.555908,31.202752_121.555927,31.202737_121.555946,31.202713_121.555957,31.202672_121.556034,31.202232_121.556216,31.2013"
310107,杨柳青路118弄-1-5号,上海市,B00155L3Z6,31.234324,121.404324,万都花园,"121.404556,31.233882_121.404298,31.233786_121.404259,31.233789_121.404227,31.233802_121.404198,31.233835_121.40416,31.2339_121.404099,31.234001_121.403992,31.234182_121.403918,31.234301_121.40391,31.234378_121.403915,31.234436_121.403942,31.234494_121.403967,31.234538_121.404009,31.234586_121.404087,31.234655_121.404248,31.234785_121.40441,31.234895_121.404435,31.23491_121.404467,31.234914_121.404496,31.234912_121.404692,31.234716_121.404696,31.234687_121.404678,31.234665_121.404493,31.234548_121.404463,31.23451_121.404455,31.234468_121.404457,31.234425_121.404474,31.234385_121.40477,31.234008_121.404762,31.233975_121.404701,31.233939_121.404556,31.233882"
310107,富平路399弄1-36号,上海市,B00155KAUR,31.26281,121.413951,中环家园2期,"121.414361,31.261267_121.414317,31.261258_121.41335,31.261442_121.413357,31.261503_121.413354,31.261592_121.413349,31.261666_121.413329,31.261753_121.413301,31.26183_121.413269,31.261906_121.413217,31.261994_121.413166,31.262064_121.413105,31.262131_121.413041,31.262188_121.41297,31.262225_121.413079,31.263284_121.413193,31.264124_121.413229,31.26417_121.413294,31.264196_121.413334,31.264195_121.414963,31.263872_121.415006,31.263844_121.415034,31.263799_121.415055,31.263748_121.415061,31.263696_121.415056,31.26365_121.414443,31.26134_121.414409,31.261296_121.414361,31.261267"
310107,真金路251弄1-46号,上海市,B00156O0BG,31.268269,121.404576,真欣园,"121.405082,31.267626_121.403995,31.267648_121.403943,31.26766_121.403931,31.267705_121.403967,31.268843_121.404058,31.268918_121.405091,31.268888_121.40515,31.268872_121.405195,31.268844_121.405223,31.268794_121.405194,31.267801_121.405179,31.267692_121.405082,31.267626"
310107,真金路250弄1-63号,上海市,B0FFF0EM6T,31.267586,121.406345,万里真金苑,"121.40716,31.266357_121.407102,31.266344_121.405579,31.266372_121.4055,31.266407_121.405454,31.266462_121.405436,31.266525_121.405474,31.26883_121.407258,31.268786_121.407215,31.266449_121.407204,31.266391_121.40716,31.266357"
310107,富平路889弄(真金路口),上海市,B00155L2UY,31.26534,121.403843,万里雅筑,"121.404735,31.264004_121.404153,31.263995_121.404149,31.264635_121.403272,31.264654_121.403271,31.264727_121.40246,31.264778_121.402391,31.264792_121.402337,31.264827_121.402315,31.264884_121.402351,31.266081_121.402371,31.266142_121.402445,31.266199_121.402524,31.266242_121.404912,31.266188_121.405093,31.266176_121.405145,31.26614_121.405175,31.266065_121.40518,31.265536_121.405153,31.264906_121.405131,31.264389_121.404731,31.264431_121.404712,31.264409_121.404735,31.264004"
310112,都市路777弄1-253号,上海市,B00155LPGC,31.042623,121.415924,万顺水原墅,"121.414083,31.040148_121.413277,31.042126_121.412936,31.042998_121.414382,31.043766_121.417002,31.04487_121.418216,31.044997_121.418317,31.044952_121.418608,31.044162_121.418514,31.044108_121.418288,31.043575_121.417992,31.043374_121.417976,31.043312_121.418109,31.042941_121.418277,31.042488_121.418503,31.041705_121.418505,31.041628_121.415696,31.040689_121.414083,31.040148"
310112,颛桥镇放鹤路2323弄,上海市,B00156DXMR,31.044117,121.422142,万顺苑(放鹤路),"121.421675,31.043268_121.421849,31.042849_121.422013,31.0429_121.422914,31.044586_121.422772,31.044924_121.42163,31.044922_121.421675,31.043268"
310120,万顺路2278弄南行达苑(未满三年动迁房)附近,上海市,B00157HPIQ,30.964657,121.517715,小森林幼儿园(南行路),"121.51826,30.965008_121.517215,30.964933_121.517149,30.964876_121.517124,30.964835_121.51717,30.964296_121.518233,30.964393_121.518267,30.96441_121.518318,30.964477_121.51826,30.965008"
310115,新德西路207弄,上海市,B001557YWV,31.19098,121.673702,万馨佳园,"121.671971,31.191855_121.671964,31.191891_121.671971,31.191906_121.671977,31.191919_121.671994,31.19193_121.672353,31.19206_121.673038,31.192333_121.673808,31.19264_121.67409,31.192765_121.674118,31.192765_121.674139,31.192759_121.674166,31.192746_121.674205,31.192722_121.674227,31.192691_121.674498,31.19219_121.675637,31.190143_121.675632,31.190118_121.675611,31.190084_121.675586,31.190046_121.675546,31.190012_121.67547,31.189971_121.675122,31.189853_121.674461,31.189659_121.673669,31.189589_121.673126,31.18956_121.672615,31.189565_121.672586,31.189573_121.672568,31.189582_121.672556,31.189598_121.672542,31.189644_121.672471,31.190089_121.672365,31.190581_121.672267,31.190895_121.671971,31.191855"
310120,新建东路388号,上海市,B00155BK0N,30.921123,121.472762,万龙新村,"121.471436,30.920083_121.471022,30.92006_121.470853,30.920754_121.470132,30.920693_121.469911,30.920672_121.469762,30.921201_121.475553,30.922217_121.475807,30.921664_121.474505,30.921368_121.474676,30.920749_121.471436,30.920083"
310106,新闸路1911弄1-17号,上海市,B00155KKEZ,31.226547,121.442394,三义坊,"121.442608,31.226781_121.442584,31.226747_121.442548,31.226694_121.442535,31.226654_121.442786,31.226166_121.442398,31.226002_121.442255,31.226314_121.442195,31.226458_121.442059,31.226696_121.442443,31.227042_121.442495,31.226996_121.442608,31.226781"
310106,昌化路400弄2-4号,上海市,B00155L4J2,31.23893,121.451571,三乐新村,"121.451952,31.239651_121.452263,31.239243_121.452387,31.239313_121.452694,31.238915_121.452912,31.238628_121.451481,31.237999_121.451421,31.237977_121.451345,31.237975_121.451281,31.237998_121.451197,31.23806_121.450387,31.238799_121.450722,31.238968_121.450477,31.239342_121.450841,31.239551_121.451192,31.239743_121.451566,31.239947_121.451715,31.24005_121.451952,31.239651"
310106,西苏州路65弄之1-26号,上海市,B00155KJLC,31.239697,121.452995,天鼎花园,"121.453224,31.240451_121.453617,31.240098_121.454,31.239642_121.452667,31.23896_121.452381,31.239329_121.452263,31.239269_121.451969,31.239638_121.452554,31.239918_121.452564,31.240025_121.452598,31.240102_121.45266,31.24017_121.452777,31.240219_121.453224,31.240451"
310112,新镇路1060弄77号,上海市,B00155L4BS,31.155573,121.361245,三佳花苑,"121.360909,31.15673_121.361485,31.156793_121.361519,31.156798_121.361539,31.156805_121.361549,31.156819_121.361555,31.156829_121.361559,31.156841_121.361558,31.15685_121.36155,31.156891_121.361549,31.156909_121.361551,31.156919_121.361558,31.156928_121.36157,31.156937_121.361594,31.156943_121.362055,31.15701_121.36208,31.157008_121.36209,31.157004_121.3621,31.156999_121.362109,31.15699_121.362118,31.156969_121.362263,31.156367_121.362348,31.155985_121.362363,31.155962_121.362375,31.15595_121.362387,31.155945_121.362408,31.155941_121.362431,31.155941_121.363564,31.156076_121.36358,31.156075_121.363595,31.15607_121.363606,31.15606_121.363616,31.156041_121.363626,31.156009_121.363631,31.155918_121.363629,31.155905_121.363621,31.155892_121.363606,31.15588_121.363579,31.15587_121.362404,31.155288_121.361311,31.154804_121.36038,31.154357_121.359863,31.154121_121.359825,31.154114_121.359789,31.154114_121.359754,31.15412_121.35973,31.154125_121.359707,31.154137_121.359692,31.154153_121.359675,31.154174_121.359372,31.154688_121.359364,31.154707_121.359365,31.154733_121.359377,31.154766_121.359403,31.154799_121.35943,31.15483_121.359522,31.154898_121.35997,31.155314_121.360309,31.155699_121.360527,31.156019_121.36062,31.156184_121.360658,31.156293_121.360743,31.156609_121.360751,31.156643_121.360764,31.156671_121.360777,31.156692_121.360792,31.156704_121.360814,31.156715_121.360846,31.156723_121.360909,31.15673"
310112,航新路88弄330号-376号,上海市,B001508DD0,31.166391,121.351481,三佳苑,"121.351721,31.165566_121.35145,31.165963_121.350869,31.165715_121.350521,31.166297_121.350952,31.166475_121.35085,31.166661_121.350928,31.166714_121.35078,31.166992_121.351585,31.167358_121.35248,31.165901_121.351721,31.165566"
310117,九亭大街586弄1-7号,上海市,B00156D01D,31.128099,121.325768,三元公寓,"121.32495,31.128058_121.326142,31.128627_121.326629,31.128168_121.32534,31.127554_121.32495,31.128058"
310117,九亭大街586弄1-5号,上海市,B00155Q41Q,31.127669,121.324625,九亭生活佳园,"121.324213,31.12754_121.324309,31.127398_121.325042,31.127806_121.32495,31.127939_121.324213,31.12754"
310114,铜川路2558弄6号楼501室3,上海市,B00155L2EE,31.256931,121.370323,三元及地苑,"121.369655,31.257219_121.369532,31.256581_121.370192,31.256409_121.370286,31.256524_121.370388,31.256755_121.371147,31.256678_121.371257,31.257054_121.371206,31.257219_121.369679,31.257336_121.369655,31.257219"
310114,铜川路2488号(近安边路口),上海市,B0FFGJ9FK4,31.256464,121.371552,铜安集贸市场(三元及地苑东南),"121.37127,31.255797_121.371355,31.256093_121.371045,31.256152_121.371224,31.256728_121.371323,31.257196_121.371539,31.257176_121.371465,31.256844_121.372065,31.256796_121.371877,31.255931_121.37144,31.256002_121.371384,31.255949_121.371354,31.255779_121.37127,31.255797"
310115,三八路31号附近,上海市,B0FFH10I54,31.048045,121.759839,三八新村-东区,"121.759948,31.047524_121.759822,31.047525_121.759823,31.047046_121.759719,31.046675_121.759449,31.046658_121.759367,31.048863_121.760383,31.048951_121.76048,31.047783_121.759972,31.047773_121.759948,31.047524"
310115,三八路94弄1-4号三八新村,上海市,B00155LD4K,31.047818,121.759136,三八新村西区,"121.759258,31.048633_121.759364,31.047026_121.75901,31.047012_121.758909,31.048607_121.759258,31.048633"
310106,中兴路1394弄1-3号,上海市,B00155L2H8,31.251856,121.460244,三兴小区,"121.461354,31.252137_121.461405,31.252127_121.461452,31.2521_121.461482,31.252062_121.4615,31.252021_121.461329,31.251519_121.461293,31.251489_121.461233,31.251459_121.461113,31.251466_121.460984,31.251491_121.460707,31.251532_121.460435,31.251546_121.460011,31.251559_121.459481,31.251556_121.459165,31.251555_121.459107,31.251582_121.459072,31.251614_121.459024,31.251669_121.459026,31.251891_121.459032,31.252112_121.459075,31.252155_121.459145,31.252177_121.459242,31.252192_121.460874,31.252162_121.461354,31.252137"
310109,三门路743弄之59-92号,上海市,B00155L34C,31.314086,121.481244,三兴苑,"121.481899,31.314631_121.480361,31.314569_121.480439,31.313651_121.481005,31.313677_121.481021,31.313554_121.481398,31.313574_121.482378,31.313651_121.482389,31.313868_121.48195,31.313852_121.481899,31.314631"
310109,唐山路599弄3-96号,上海市,B00155KUHF,31.256161,121.50582,三益村,"121.505496,31.25677_121.505641,31.256696_121.505609,31.256646_121.506018,31.256417_121.506414,31.25622_121.506027,31.25559_121.505365,31.255946_121.505592,31.256268_121.505258,31.256448_121.505496,31.25677"
310106,延平路123弄1-16号,上海市,B00154DDR2,31.228307,121.439999,三和花园,"121.439343,31.227647_121.438774,31.228142_121.438773,31.22819_121.438869,31.228273_121.439161,31.228536_121.439409,31.228906_121.439535,31.229069_121.439859,31.229226_121.44013,31.229407_121.440441,31.22957_121.440746,31.229214_121.441035,31.228852_121.440629,31.228626_121.441039,31.228099_121.440216,31.227602_121.440198,31.22759_121.440195,31.227572_121.440517,31.227224_121.440064,31.226935_121.439343,31.227647"
310106,宝山路450弄、宝昌路265号,上海市,B00155IV9E,31.257349,121.4766,三宝花苑,"121.477341,31.257719_121.477321,31.257613_121.477151,31.256958_121.476753,31.257033_121.476422,31.256774_121.475803,31.25736_121.476549,31.257942_121.476905,31.257544_121.477298,31.257759_121.477341,31.257719"
310116,蒙山路1498号,上海市,B00156D1D3,30.734755,121.343413,三岛龙洲苑(蒙山路),"121.341566,30.735796_121.3417,30.735445_121.341963,30.735505_121.342252,30.734629_121.342424,30.734569_121.342563,30.734482_121.342676,30.734186_121.342676,30.734034_121.342456,30.733887_121.342719,30.732983_121.342794,30.733001_121.34288,30.732831_121.345149,30.733463_121.344548,30.73492_121.344511,30.735099_121.344473,30.735215_121.344328,30.735431_121.343781,30.736543_121.343969,30.736644_121.343829,30.736893_121.341566,30.735796"
310110,许昌路1600号,上海市,B0015353B0,31.273151,121.512697,三峰大厦,"121.512291,31.273446_121.512464,31.272733_121.512518,31.272699_121.513068,31.272862_121.513086,31.272909_121.512968,31.27356_121.512331,31.273482_121.512291,31.273446"
310112,三鲁公路2999号,上海市,B0FFG83W05,31.074759,121.521942,三弦·海上金街商业广场,"121.520012,31.074749_121.52002,31.074763_121.520031,31.074771_121.520048,31.074778_121.523316,31.075704_121.523329,31.075704_121.523341,31.075703_121.523351,31.075699_121.523357,31.075693_121.523364,31.075684_121.523733,31.074584_121.523733,31.074571_121.52373,31.074561_121.523724,31.074551_121.523714,31.074544_121.523703,31.07454_121.523022,31.074415_121.520783,31.074014_121.520347,31.073917_121.520336,31.073917_121.520327,31.07392_121.520317,31.073923_121.520312,31.073928_121.520305,31.073941_121.520011,31.074733_121.520012,31.074749"
310112,沧源路755弄之2号-124号,上海市,B00155QPC9,31.014962,121.429454,三明花园,"121.428927,31.01415_121.428429,31.015225_121.429928,31.015749_121.430009,31.015724_121.43048,31.014706_121.428927,31.01415"
310112,沁春路355弄,上海市,B00154DU6S,31.093119,121.374851,三春汇秀苑,"121.373648,31.092268_121.373657,31.092257_121.373665,31.092253_121.373675,31.09225_121.373692,31.09225_121.374084,31.092384_121.374097,31.092384_121.374106,31.092383_121.37412,31.092379_121.374133,31.092367_121.374416,31.091876_121.374427,31.091861_121.37444,31.091853_121.374454,31.09185_121.374466,31.09185_121.374481,31.09185_121.37651,31.092534_121.376534,31.092544_121.376546,31.092558_121.37655,31.09257_121.376549,31.092586_121.375556,31.094748_121.375548,31.094758_121.37554,31.094763_121.375523,31.094765_121.375508,31.094764_121.375489,31.094757_121.372971,31.093859_121.372948,31.09385_121.372936,31.093836_121.372928,31.093801_121.372925,31.093779_121.372929,31.09375_121.372943,31.09372_121.373648,31.092268"
310112,"中春路4058号,三春汇秀苑附近",上海市,B0FFG1WZAK,31.092091,121.373915,中国石化闵春加油站(中春路),"121.373552,31.09219_121.373544,31.092181_121.373542,31.092165_121.373737,31.091802_121.37375,31.091793_121.373771,31.091795_121.373811,31.091816_121.374281,31.092014_121.374288,31.092032_121.374288,31.092048_121.374107,31.092364_121.374092,31.09237_121.374068,31.092369_121.373571,31.092197_121.373552,31.09219"
310115,东书房路390弄1-93号,上海市,B00156Z0PG,31.163797,121.533212,三林世博家园D区,"121.534631,31.165366_121.534656,31.165338_121.535612,31.163594_121.534835,31.163274_121.534393,31.163123_121.53194,31.162342_121.531836,31.162372_121.530632,31.163795_121.530605,31.163831_121.534584,31.165372_121.534631,31.165366"
310115,大道站路94弄,上海市,B0FFGYMOHZ,31.159281,121.539195,三林世博家园B区,"121.541863,31.162278_121.543876,31.159552_121.5439,31.159438_121.541205,31.158395_121.53601,31.156629_121.535771,31.156625_121.534456,31.158798_121.535809,31.159442_121.53701,31.160009_121.53819,31.160575_121.539299,31.161113_121.539403,31.160933_121.539341,31.160184_121.539398,31.1601_121.540438,31.160518_121.54047,31.160715_121.540443,31.160914_121.540038,31.161488_121.541673,31.162273_121.541863,31.162278"
310115,板泉路2000弄1-101号,上海市,B00156Z0LL,31.166124,121.52991,三林世博家园西区,"121.534206,31.166038_121.53415,31.165971_121.530471,31.164467_121.530266,31.164411_121.530161,31.164406_121.530008,31.16448_121.528845,31.165779_121.528865,31.165887_121.52912,31.165979_121.531498,31.166679_121.533522,31.167294_121.534206,31.166038"
310115,板泉路2000弄1-101号,上海市,B00156Z1E8,31.167334,121.536033,三林世博家园东区,"121.537692,31.167214_121.536525,31.166764_121.5354,31.166361_121.534675,31.167659_121.536027,31.168204_121.536105,31.168221_121.536178,31.168229_121.536261,31.168193_121.536477,31.168067_121.537692,31.167214"
310115,三林路1662弄1-174号,上海市,B0015130FB,31.145562,121.526055,三林安居苑,"121.526364,31.146967_121.526815,31.146927_121.527362,31.146192_121.527933,31.146458_121.528452,31.145658_121.528501,31.145548_121.528475,31.145462_121.528386,31.145377_121.527875,31.14513_121.527611,31.14499_121.527289,31.144827_121.526555,31.144483_121.525589,31.144009_121.52532,31.143862_121.525025,31.144255_121.524559,31.144859_121.524185,31.14534_121.523914,31.145693_121.523691,31.145978_121.523693,31.146041_121.523856,31.146117_121.524652,31.146483_121.524735,31.146377_121.525524,31.146739_121.525594,31.146633_121.526364,31.146967"
310115,永泰路133弄1-62号,上海市,B0FFGL0ARR,31.136881,121.504655,三林新村C,"121.503874,31.135247_121.503698,31.135265_121.503549,31.135516_121.503481,31.135486_121.503016,31.13632_121.50278,31.136247_121.502158,31.137457_121.50275,31.137672_121.503065,31.137818_121.503767,31.137931_121.503927,31.137936_121.504412,31.138045_121.505404,31.138395_121.505692,31.138474_121.505905,31.138494_121.505999,31.138482_121.506122,31.138473_121.506234,31.138441_121.506346,31.137701_121.506492,31.137226_121.50687,31.136211_121.506839,31.136123_121.506718,31.136057_121.503874,31.135247"
310115,永泰路136弄之1-36号,上海市,B00156TLLH,31.134527,121.504261,三林新村1区,"121.50189,31.133588_121.501786,31.133959_121.501658,31.134316_121.504425,31.135151_121.506054,31.13565_121.50658,31.134395_121.505823,31.134258_121.505375,31.134153_121.504424,31.133997_121.50189,31.133588"
310115,永泰路258弄之1-20号,上海市,B00156TK82,31.135762,121.508885,三林新村2区,"121.509673,31.136693_121.509623,31.136742_121.507955,31.136247_121.50818,31.135615_121.507549,31.1354_121.507876,31.134659_121.508669,31.134693_121.510353,31.136361_121.510208,31.136714_121.510015,31.136782_121.509673,31.136693"
310115,永泰路468号,上海市,B0FFHYLW3I,31.136335,121.512184,三林新村3区,"121.51334,31.136936_121.513702,31.136702_121.513798,31.136613_121.513818,31.136524_121.513814,31.136445_121.513414,31.135776_121.513301,31.135625_121.513216,31.135506_121.513076,31.135421_121.51294,31.135368_121.511618,31.13514_121.511501,31.1353_121.511396,31.135419_121.511256,31.135532_121.511102,31.135656_121.510938,31.135811_121.510826,31.135965_121.510794,31.136152_121.510782,31.136273_121.510759,31.136404_121.510735,31.136496_121.510727,31.136541_121.510925,31.136688_121.51063,31.137024_121.510762,31.137084_121.511226,31.137198_121.51165,31.137306_121.5125,31.137582_121.512603,31.1374_121.512663,31.13732_121.512813,31.13721_121.51334,31.136936"
310115,三林路1466弄1-106号,上海市,B00156TM44,31.14614,121.52308,三林苑,"121.519362,31.145302_121.519285,31.145227_121.519277,31.145194_121.519274,31.14514_121.519273,31.145072_121.519513,31.144779_121.519544,31.144785_121.519806,31.144888_121.519981,31.144955_121.520245,31.14503_121.520701,31.145159_121.52076,31.145266_121.521515,31.145466_121.522244,31.145679_121.522629,31.145797_121.522713,31.145777_121.522816,31.145577_121.523464,31.145848_121.523681,31.145973_121.523687,31.146048_121.523798,31.146105_121.52466,31.146494_121.524725,31.146411_121.524949,31.146512_121.525524,31.146779_121.525583,31.146786_121.525694,31.146689_121.526268,31.146962_121.526392,31.146999_121.526817,31.147039_121.52699,31.14713_121.527053,31.147158_121.527214,31.147202_121.527407,31.147283_121.527273,31.147511_121.527229,31.147534_121.527195,31.147547_121.527163,31.147556_121.52712,31.147559_121.526231,31.147307_121.525197,31.146995_121.52436,31.14675_121.52353,31.146511_121.522757,31.146298_121.521829,31.146028_121.520996,31.145779_121.520357,31.145586_121.519508,31.145344_121.519362,31.145302"
310115,三林路519弄1-28号,上海市,B0FFFDX82Q,31.14107,121.501416,玉兰苑三林,"121.500651,31.141131_121.500605,31.141246_121.500473,31.141573_121.500562,31.141602_121.50118,31.141806_121.501783,31.141987_121.502167,31.141053_121.502357,31.140561_121.501175,31.140179_121.501127,31.140266_121.500995,31.140227_121.500651,31.141131"
310115,海阳路905弄之1-17号,上海市,B00155G1YH,31.158549,121.503456,上南山水苑西区,"121.504237,31.158193_121.504192,31.158134_121.503435,31.157922_121.503292,31.15829_121.502828,31.158169_121.502598,31.158848_121.503739,31.159141_121.503797,31.159142_121.503853,31.159102_121.504228,31.158264_121.504237,31.158193"
310115,三舒路181弄-1-21号,上海市,B0FFG828W6,31.123029,121.505573,东方康达家苑二期,"121.504747,31.121733_121.505747,31.122199_121.505768,31.122209_121.505781,31.122224_121.505792,31.122245_121.505792,31.122257_121.505786,31.12228_121.505526,31.122835_121.50654,31.123226_121.506166,31.124016_121.506073,31.124175_121.506053,31.124187_121.506033,31.124191_121.506013,31.12419_121.505989,31.124179_121.504316,31.123299_121.504588,31.121798_121.504599,31.121771_121.504614,31.121749_121.504635,31.121732_121.50466,31.121722_121.504687,31.12172_121.50472,31.121721_121.504747,31.121733"
310104,三江路301弄之1-75号,上海市,B00154581F,31.164701,121.43999,三江小区,"121.440998,31.165794_121.440984,31.165806_121.440957,31.165813_121.44094,31.165812_121.440918,31.16581_121.44061,31.165751_121.440555,31.165751_121.440521,31.165753_121.440402,31.165774_121.440309,31.165776_121.440242,31.165769_121.44019,31.16576_121.440054,31.165709_121.439996,31.16569_121.439911,31.16566_121.439825,31.165618_121.439381,31.165383_121.438867,31.165138_121.438853,31.165123_121.438847,31.16511_121.438846,31.165099_121.438851,31.165079_121.439059,31.163425_121.439061,31.163413_121.439071,31.163402_121.439087,31.1634_121.439104,31.163401_121.43955,31.163427_121.439562,31.163433_121.439568,31.163445_121.439579,31.163482_121.439591,31.163495_121.439753,31.163589_121.439778,31.163595_121.439814,31.163603_121.439825,31.163612_121.43983,31.163632_121.440242,31.163954_121.440258,31.16396_121.440266,31.163961_121.440338,31.163964_121.440353,31.16397_121.440361,31.163982_121.440365,31.164023_121.440372,31.164038_121.44101,31.164517_121.441324,31.16473_121.441336,31.164744_121.441336,31.164757_121.441333,31.164769_121.441325,31.164783_121.441264,31.164901_121.441257,31.164917_121.441257,31.164931_121.441259,31.164946_121.441267,31.164956_121.441343,31.165_121.441358,31.165015_121.441362,31.165027_121.44136,31.165041_121.441354,31.165057_121.441194,31.165416_121.440998,31.165794"
310106,三泉路999弄,上海市,B00155L4LP,31.318482,121.438503,三泉家园,"121.436853,31.319636_121.440441,31.319826_121.440466,31.319824_121.440474,31.319821_121.440481,31.319813_121.440486,31.319801_121.440506,31.318465_121.440505,31.318458_121.440501,31.318447_121.4405,31.318442_121.440488,31.318436_121.440473,31.318432_121.439262,31.31836_121.439219,31.318357_121.439208,31.318352_121.4392,31.318346_121.439196,31.318335_121.439195,31.318326_121.439193,31.318313_121.439277,31.317671_121.439277,31.317661_121.439273,31.317651_121.439269,31.317644_121.439261,31.317638_121.439247,31.317636_121.439117,31.317624_121.439101,31.317621_121.439097,31.317618_121.439092,31.31761_121.439086,31.317599_121.439083,31.317579_121.43916,31.316905_121.43916,31.316897_121.439157,31.316889_121.439152,31.316877_121.439145,31.316871_121.439141,31.316866_121.439136,31.316863_121.439125,31.316857_121.437359,31.316703_121.437348,31.316703_121.437336,31.316706_121.437328,31.316712_121.437321,31.316721_121.437315,31.316731_121.437311,31.31674_121.43688,31.319158_121.436801,31.319583_121.4368,31.319601_121.436805,31.31962_121.436816,31.319627_121.436832,31.319631_121.436853,31.319636"
310105,长宁路1135弄-102-124号,上海市,B00155KL9B,31.214748,121.414647,三泾北宅小区,"121.415074,31.215113_121.41575,31.214973_121.415827,31.214818_121.41588,31.214437_121.415749,31.214341_121.415093,31.214214_121.414941,31.214213_121.414721,31.214313_121.414416,31.214387_121.414252,31.214388_121.413994,31.214372_121.413806,31.214433_121.413642,31.21465_121.413556,31.214738_121.412887,31.214883_121.412967,31.215132_121.414064,31.214885_121.414118,31.215149_121.414393,31.215102_121.414451,31.215133_121.414573,31.215362_121.415109,31.215274_121.415074,31.215113"
310105,武夷路727弄-1-21号,上海市,B00155L4TC,31.213593,121.416122,三泾南宅,"121.416365,31.213867_121.417296,31.213896_121.417352,31.213135_121.416537,31.213115_121.416545,31.212898_121.415832,31.21289_121.41582,31.213098_121.415133,31.21309_121.415142,31.214216_121.415749,31.214327_121.416351,31.214345_121.416365,31.213867"
310110,政青路599弄(新江湾城政青路),上海市,B00156LVIU,31.319434,121.49733,三湘七星府邸,"121.497653,31.320403_121.496581,31.320385_121.496623,31.31979_121.49665,31.319649_121.496752,31.31965_121.496859,31.318971_121.49699,31.318576_121.497213,31.318432_121.498028,31.318453_121.498031,31.31876_121.497924,31.319435_121.497653,31.320403"
310110,纪念路289弄,上海市,B00155KTLQ,31.299661,121.488957,三湘世纪花城西区,"121.490772,31.29942_121.490394,31.299384_121.490327,31.299339_121.490496,31.298787_121.489764,31.298555_121.488245,31.298144_121.488182,31.29816_121.488141,31.298193_121.487829,31.299072_121.488259,31.299196_121.488091,31.29966_121.487829,31.300147_121.487459,31.30074_121.487127,31.300649_121.486869,31.301183_121.48717,31.301212_121.487444,31.301199_121.487609,31.301165_121.487794,31.301134_121.488148,31.301036_121.488392,31.300954_121.488614,31.300854_121.488823,31.300764_121.489173,31.300559_121.489533,31.300371_121.490039,31.30018_121.490586,31.300028_121.490659,31.299999_121.490737,31.2999_121.49091,31.299708_121.49094,31.299653_121.490955,31.2996_121.490922,31.299486_121.490772,31.29942"
310110,吉浦路99弄,上海市,B00155L2KU,31.300528,121.492325,三湘世纪花城三期,"121.493624,31.299793_121.493527,31.299758_121.49103,31.300134_121.490741,31.301699_121.490757,31.301794_121.494009,31.300733_121.49403,31.300706_121.494039,31.300675_121.494037,31.300644_121.493709,31.2999_121.493624,31.299793"
310117,横港公路37-45号(近泗陈公路),上海市,B0FFFPWS71,31.117259,121.259954,三湘商业广场,"121.258325,31.117654_121.258438,31.11682_121.258953,31.116867_121.259028,31.116327_121.260342,31.116515_121.261383,31.11666_121.261442,31.116692_121.261469,31.11674_121.261474,31.116825_121.261364,31.117309_121.261327,31.117626_121.261324,31.117831_121.261321,31.118086_121.261304,31.118114_121.261268,31.118125_121.258483,31.117835_121.258398,31.117792_121.258347,31.117736_121.258325,31.117654"
310117,梅家浜路1508弄,上海市,B00152FC6E,31.055698,121.228865,三湘四季花城,"121.22899,31.058521_121.228544,31.058581_121.227004,31.058801_121.226923,31.058769_121.22688,31.058741_121.226849,31.05867_121.226847,31.05856_121.226853,31.058399_121.227832,31.058286_121.227843,31.057602_121.227604,31.057606_121.22759,31.057323_121.227028,31.057308_121.227013,31.057317_121.226997,31.057085_121.226845,31.057082_121.226843,31.056937_121.226859,31.056106_121.226851,31.054518_121.226856,31.054022_121.226851,31.053599_121.22684,31.053332_121.226861,31.053231_121.226966,31.053077_121.227087,31.052967_121.227288,31.052848_121.227403,31.052783_121.227843,31.052627_121.228329,31.052485_121.228876,31.05236_121.229579,31.052241_121.229691,31.052326_121.229675,31.052494_121.229748,31.052573_121.229728,31.052967_121.22974,31.053362_121.229815,31.054314_121.229876,31.054373_121.230372,31.054376_121.230458,31.054435_121.230474,31.054989_121.230611,31.055037_121.23067,31.055079_121.230875,31.055099_121.231086,31.055097_121.231191,31.055095_121.231183,31.055986_121.231196,31.057195_121.231223,31.058181_121.22899,31.058521"
310117,梅家浜路1508弄,上海市,B0FFGHRQWZ,31.054685,121.230843,三湘四季花城牡丹苑,"121.23114,31.054973_121.230619,31.054969_121.230566,31.05494_121.230554,31.054392_121.231016,31.054394_121.231126,31.054479_121.23114,31.054973"
310117,梅家浜路1500弄1-40号,上海市,B0FFFDD8AY,31.052795,121.230144,三湘财富广场,"121.230345,31.052216_121.230414,31.052234_121.230456,31.052254_121.230493,31.0523_121.230487,31.05334_121.229786,31.053348_121.229795,31.052436_121.229872,31.052263_121.229904,31.052241_121.230345,31.052216"
310110,淞沪路905号,上海市,B00156ZFZB,31.316608,121.505285,三湘·未来海岸,"121.506019,31.317158_121.504408,31.316953_121.504554,31.316146_121.504573,31.316104_121.504597,31.316074_121.504628,31.316066_121.504666,31.316064_121.505376,31.316163_121.506139,31.31625_121.506019,31.317158"
310114,芳林路西150米,上海市,B0FFGFVKG6,31.30541,121.325407,三湘海尚名邸,"121.32362,31.306591_121.324891,31.307551_121.324988,31.307586_121.325095,31.307602_121.32517,31.30757_121.32524,31.307528_121.326828,31.305732_121.327434,31.305009_121.327456,31.304947_121.327464,31.304891_121.327458,31.304836_121.327421,31.304794_121.327198,31.304623_121.325911,31.303733_121.325673,31.303572_121.325206,31.304027_121.324275,31.30337_121.323686,31.304177_121.324937,31.305017_121.32362,31.306591"
310113,郁江巷路129弄,上海市,B0015746HI,31.342735,121.478731,三湘海尚,"121.480425,31.34377_121.479771,31.342408_121.479665,31.34237_121.479434,31.342659_121.478866,31.342363_121.479369,31.341522_121.479461,31.341324_121.479209,31.340933_121.478904,31.340383_121.477938,31.340763_121.477639,31.340827_121.477411,31.341397_121.47713,31.342017_121.476836,31.342657_121.477558,31.34292_121.477499,31.343091_121.478601,31.343481_121.478516,31.34368_121.479104,31.34394_121.478965,31.34417_121.478677,31.344504_121.478711,31.34461_121.478745,31.344687_121.478569,31.345079_121.47968,31.345472_121.479729,31.345397_121.479926,31.34506_121.47933,31.344835_121.479434,31.344575_121.479535,31.34436_121.479788,31.34444_121.480076,31.344522_121.480388,31.344007_121.480425,31.34377"
310113,长江西路200号三湘海尚城1层,上海市,B0FFFFFNU2,31.345041,121.47927,湘源大厦,"121.479718,31.345382_121.478648,31.344995_121.478798,31.344709_121.479879,31.345064_121.479718,31.345382"
310109,广粤路835弄之1-5号,上海市,B00155KCOO,31.299131,121.465507,三湘花园,"121.464309,31.299617_121.464891,31.2997_121.465291,31.299757_121.466412,31.299926_121.466452,31.299913_121.466583,31.299427_121.46657,31.298499_121.466157,31.298508_121.465572,31.298496_121.465114,31.298444_121.464558,31.298357_121.464532,31.298375_121.464309,31.299617"
310109,株洲路299弄1-14号,上海市,B00155KBRR,31.277184,121.466313,三湘花苑(东苑),"121.465619,31.27743_121.465668,31.277195_121.465924,31.277171_121.465897,31.276978_121.466838,31.27688_121.466909,31.277354_121.465686,31.277454_121.465619,31.27743"
310109,株洲路300弄之1-12号、17-26号,上海市,B0FFGS9USQ,31.277613,121.464655,三湘花苑西区,"121.464284,31.276993_121.464117,31.27732_121.464045,31.277506_121.463895,31.277918_121.464505,31.27804_121.465188,31.278162_121.465373,31.277368_121.464284,31.276993"
310113,一二八纪念路788弄-1-13号,上海市,B00155KBLX,31.32519,121.449942,三湘盛世花园2期(通河路),"121.450926,31.325655_121.448821,31.325006_121.448759,31.324848_121.448925,31.324395_121.448668,31.324117_121.448802,31.3239_121.449368,31.324298_121.44918,31.324514_121.450183,31.325192_121.450572,31.324782_121.450674,31.324713_121.450784,31.32469_121.450883,31.324686_121.45102,31.324741_121.451216,31.324883_121.450926,31.325655"
310113,一二八纪念路688弄1-19号,上海市,B00156NUFP,31.325793,121.45323,三湘盛世花园1期(通河路),"121.455407,31.32667_121.455412,31.326129_121.454612,31.326111_121.454562,31.326099_121.454531,31.326067_121.454457,31.325944_121.454443,31.325895_121.454443,31.325846_121.454417,31.32574_121.454366,31.325611_121.454379,31.324952_121.453295,31.32489_121.453253,31.325114_121.452854,31.325053_121.452734,31.325015_121.452325,31.324759_121.452287,31.324671_121.452195,31.32461_121.45169,31.324562_121.451316,31.325948_121.451321,31.325982_121.451344,31.326025_121.451379,31.326056_121.453559,31.326697_121.454064,31.326771_121.454457,31.326803_121.455215,31.326807_121.455285,31.326799_121.455338,31.326768_121.455385,31.326723_121.455407,31.32667"
310117,涞亭南路888弄(近顾戴路),上海市,B00155L4DP,31.123112,121.34024,颐景园(涞亭南路),"121.342301,31.122926_121.342365,31.122571_121.343057,31.122868_121.343714,31.121734_121.343913,31.121274_121.344044,31.120927_121.344122,31.120618_121.344146,31.120305_121.344149,31.11889_121.34226,31.119334_121.341899,31.119424_121.339684,31.119941_121.339112,31.12076_121.33839,31.121888_121.337693,31.122973_121.336961,31.124169_121.336183,31.125387_121.337945,31.12588_121.338181,31.12588_121.340192,31.126463_121.340451,31.125899_121.34126,31.126165_121.341738,31.125311_121.34218,31.124477_121.341398,31.124145_121.341392,31.124014_121.341616,31.123879_121.341958,31.123584_121.342204,31.123207_121.342301,31.122926"
310104,枫林路街道平江路139号3楼物业三航大厦,上海市,B00155LB5D,31.199582,121.455173,三航大厦(平江路),"121.455215,31.199964_121.455523,31.199356_121.455133,31.199189_121.454824,31.199827_121.455215,31.199964"
310113,云西路168弄,上海市,B00155I817,31.316581,121.475318,三花现代城丹桂苑,"121.476643,31.315334_121.476575,31.315281_121.47651,31.315269_121.475911,31.315412_121.474356,31.315608_121.474465,31.316391_121.473766,31.316481_121.473895,31.317241_121.472974,31.317355_121.47299,31.317633_121.473053,31.317731_121.473114,31.317768_121.473177,31.317786_121.475126,31.317496_121.476724,31.317293_121.476819,31.317234_121.476851,31.317126_121.476885,31.316982_121.476926,31.316665_121.476936,31.316312_121.476796,31.315681_121.476643,31.315334"
310113,高跃路133弄(近殷高西路),上海市,B00156EK8N,31.318311,121.471107,三花现代城金兰苑,"121.468822,31.317711_121.468825,31.317702_121.46883,31.317697_121.468842,31.31769_121.468864,31.317684_121.472151,31.317528_121.472165,31.317529_121.472176,31.317535_121.472181,31.317541_121.472188,31.317553_121.472204,31.317718_121.472208,31.317731_121.472214,31.317738_121.472223,31.31774_121.472243,31.317738_121.472784,31.317592_121.472798,31.317592_121.472813,31.317593_121.472824,31.317598_121.472832,31.317607_121.472839,31.31762_121.472949,31.318872_121.472997,31.319379_121.472991,31.31939_121.472979,31.319395_121.472967,31.319399_121.472952,31.319401_121.472939,31.319402_121.472906,31.319399_121.468809,31.318496_121.468795,31.318491_121.468786,31.318487_121.468775,31.31848_121.46877,31.318473_121.468766,31.318466_121.468765,31.31845_121.468822,31.317711"
310113,"云西路219弄,云西路168弄",上海市,B00155L341,31.318653,121.474819,三花现代城香梅苑,"121.476666,31.317455_121.47562,31.317549_121.475089,31.317617_121.474077,31.317762_121.473047,31.317917_121.473141,31.319159_121.473151,31.319438_121.475786,31.320038_121.475943,31.319618_121.476165,31.319086_121.475988,31.319033_121.47618,31.318577_121.476295,31.318607_121.476714,31.317547_121.476666,31.317455"
