adcode,address,city,id,lat,lng,name,shape
340207,梦溪路万春新城财富广场西400米,芜湖市,B0FFH86P78,31.364074,118.497611,万春新苑,"118.497278,31.367857_118.499604,31.367404_118.499553,31.367042_118.499016,31.367109_118.498957,31.366589_118.499489,31.366518_118.498791,31.3625_118.498566,31.362395_118.495508,31.363059_118.495765,31.364199_118.496522,31.364007_118.496865,31.365812_118.497058,31.366799_118.497278,31.367857"
340207,,芜湖市,B0FFIRCV94,31.361428,118.489228,万春新苑雅苑,"118.492329,31.362935_118.492415,31.362724_118.492495,31.362454_118.492533,31.362248_118.492526,31.362092_118.492502,31.361975_118.492443,31.361747_118.492381,31.361461_118.492368,31.361374_118.492393,31.361102_118.492243,31.360418_118.491819,31.358544_118.485591,31.360299_118.486669,31.36416_118.492329,31.362935"
340207,财富街(环道)附近,芜湖市,B022914NQJ,31.359373,118.495732,万春新苑B区,"118.492702,31.358344_118.498001,31.357177_118.49851,31.36065_118.497053,31.360969_118.496182,31.36114_118.495422,31.361207_118.494096,31.361098_118.493673,31.361092_118.493291,31.361121_118.492702,31.358344"
340207,,芜湖市,B0FFHJI2R5,31.35954,118.483475,万春新苑乐苑,"118.48211,31.358696_118.482192,31.358988_118.482158,31.35907_118.482011,31.359193_118.482276,31.359944_118.482508,31.360294_118.482634,31.360551_118.482715,31.360685_118.482828,31.360906_118.484936,31.360299_118.484379,31.358231_118.48211,31.358696"
340207,万春东路附近,芜湖市,B0FFG70GO3,31.367055,118.495773,万春花园东区,"118.494934,31.369465_118.497477,31.369071_118.496586,31.364509_118.493952,31.365255_118.494108,31.365503_118.494934,31.369465"
340207,清水街道万春大道万春花园北区,芜湖市,B0FFG4IG9B,31.367979,118.490449,万春花园北区,"118.488439,31.370565_118.489473,31.370395_118.489484,31.370434_118.490173,31.370292_118.490523,31.370225_118.491062,31.370108_118.491638,31.36998_118.492072,31.36989_118.49248,31.369803_118.493218,31.36965_118.493373,31.369627_118.493361,31.369566_118.493588,31.369516_118.493621,31.369022_118.493644,31.36863_118.493628,31.368343_118.493586,31.368002_118.493543,31.367838_118.493494,31.367657_118.493429,31.367457_118.493266,31.367084_118.493059,31.366674_118.493035,31.36665_118.492173,31.366934_118.492091,31.366633_118.49208,31.366608_118.492045,31.366598_118.492008,31.366595_118.491945,31.3666_118.491793,31.366204_118.491103,31.366393_118.490099,31.366661_118.489326,31.3669_118.488738,31.367057_118.487723,31.367312_118.487808,31.367789_118.487952,31.368449_118.488123,31.369195_118.488439,31.370565"
340203,沿江板块东至中山南路西至长江南路南至地大橡树园北至乌霞山西路,芜湖市,B0FFFS6FFK,31.295587,118.360709,万科·海上传奇(中山南路),"118.358325,31.29644_118.358001,31.295754_118.358001,31.295745_118.358003,31.295737_118.358007,31.295727_118.358012,31.29572_118.35802,31.295713_118.358672,31.295474_118.358688,31.295474_118.3587,31.295475_118.358708,31.295478_118.358717,31.295485_118.358726,31.295491_118.358735,31.295498_118.358742,31.2955_118.358751,31.295502_118.35877,31.2955_118.359408,31.295284_118.359418,31.295279_118.359423,31.295271_118.359426,31.295264_118.359426,31.295256_118.359422,31.295243_118.359184,31.294935_118.359183,31.294928_118.359183,31.294919_118.359187,31.29491_118.359195,31.294901_118.359208,31.294893_118.359314,31.294862_118.359328,31.294857_118.359336,31.29485_118.359344,31.294841_118.35935,31.294827_118.359355,31.294811_118.359356,31.294796_118.359352,31.294785_118.359082,31.294236_118.35908,31.29422_118.359084,31.294207_118.35909,31.294197_118.359102,31.294187_118.359545,31.293971_118.359572,31.293962_118.359599,31.293955_118.359625,31.293949_118.359662,31.293947_118.360076,31.293954_118.360154,31.293959_118.361193,31.294057_118.361224,31.294065_118.361248,31.294077_118.361276,31.294094_118.361292,31.294108_118.361307,31.294125_118.361608,31.294583_118.36162,31.294595_118.361633,31.294604_118.361649,31.294609_118.361672,31.294614_118.363456,31.29469_118.36347,31.294694_118.363486,31.294701_118.363505,31.294713_118.363517,31.294726_118.363529,31.294742_118.363537,31.294764_118.363545,31.294796_118.363549,31.294817_118.363474,31.296217_118.36347,31.29623_118.363464,31.296236_118.363456,31.296239_118.363431,31.296244_118.361539,31.296094_118.361522,31.296097_118.361508,31.296104_118.3615,31.296113_118.361495,31.296126_118.361491,31.296144_118.361405,31.297237_118.361402,31.297248_118.361397,31.297257_118.36139,31.29726_118.361377,31.297265_118.361351,31.297266_118.358984,31.297023_118.358949,31.297016_118.358901,31.296999_118.358846,31.296979_118.358793,31.296959_118.358734,31.296932_118.358704,31.296915_118.358665,31.296894_118.358606,31.296851_118.358556,31.296812_118.358524,31.296781_118.358498,31.296754_118.35848,31.29673_118.358461,31.296705_118.358325,31.29644"
340207,中江大道与涌金路交叉口,芜湖市,B022915D5E,31.362707,118.428007,芜湖万科城北区,"118.425929,31.36375_118.426025,31.363966_118.426175,31.364382_118.429936,31.363512_118.429834,31.363091_118.429611,31.362147_118.429088,31.362236_118.428898,31.361506_118.429426,31.361419_118.429362,31.361176_118.429233,31.361029_118.428847,31.360968_118.426698,31.36124_118.426776,31.361588_118.426771,31.361914_118.426765,31.362019_118.426884,31.362111_118.42709,31.362172_118.427393,31.362184_118.427795,31.36223_118.42793,31.362317_118.427672,31.362944_118.42757,31.362988_118.427366,31.362949_118.427114,31.362967_118.426894,31.362921_118.426787,31.36293_118.426631,31.362979_118.426395,31.363102_118.426283,31.363137_118.426183,31.363247_118.426079,31.363359_118.42599,31.363521_118.425929,31.36375"
340207,涌金路南,芜湖市,B022915BRF,31.359215,118.425273,万科城南区,"118.425106,31.361238_118.425516,31.36111_118.425369,31.360116_118.42547,31.35999_118.426391,31.359891_118.426694,31.360171_118.426899,31.36032_118.427251,31.360356_118.427708,31.360189_118.428011,31.359731_118.428024,31.359596_118.427968,31.359502_118.428579,31.359184_118.428928,31.359092_118.428816,31.358568_118.427678,31.357672_118.422732,31.357665_118.422679,31.361244_118.425106,31.361238"
340203,万豪路9号,芜湖市,B022913R2M,31.315944,118.379667,万豪白领富贵西园,"118.379821,31.317123_118.380171,31.316997_118.380399,31.316851_118.380455,31.316702_118.380187,31.31632_118.379878,31.315943_118.379637,31.315519_118.37952,31.314648_118.379441,31.314563_118.379112,31.314582_118.379129,31.31531_118.379237,31.315763_118.379454,31.31629_118.379821,31.317123"
340203,新时代商业街69号,芜湖市,B02290HX96,31.313933,118.380975,万豪·白领广场,"118.379576,31.314453_118.38014,31.314313_118.382017,31.314256_118.382276,31.314022_118.382207,31.313955_118.382163,31.313926_118.38158,31.313901_118.38151,31.31322_118.380829,31.313208_118.380858,31.313926_118.380164,31.314013_118.379503,31.314055_118.379576,31.314453"
340208,芜繁南路,芜湖市,B02290I9PP,31.229192,118.241562,三华小区,"118.240095,31.228363_118.240115,31.228142_118.24286,31.228256_118.242781,31.229982_118.241196,31.22994_118.239781,31.229824_118.239932,31.229086_118.241844,31.229196_118.241867,31.228431_118.240095,31.228363"
340208,,芜湖市,B0FFHP8EFA,31.220027,118.251486,三华新城,"118.249694,31.221472_118.249731,31.219013_118.249769,31.218958_118.249769,31.218416_118.250633,31.218439_118.250603,31.218565_118.251318,31.218564_118.251466,31.21905_118.251905,31.219038_118.251996,31.218759_118.252411,31.218432_118.253256,31.218426_118.253261,31.221485_118.249694,31.221472"
340208,"芜繁南路三华小区公交站旁边,近好娃娃幼儿园",芜湖市,B02290I9PN,31.22833,118.241726,海天宾馆(三华小区西南),"118.241592,31.228397_118.241603,31.228253_118.241858,31.228264_118.241854,31.228405_118.241592,31.228397"
340208,峨桥路与磨山路交叉口南150米,芜湖市,B0FFFXIZAV,31.216463,118.253169,好娃娃三华新城幼儿园,"118.253016,31.216861_118.253008,31.216146_118.253167,31.216147_118.253173,31.216859_118.253016,31.216861"
340208,龙湖路与321省道交叉口东100米,芜湖市,B0FFGA4YXJ,31.23146,118.272857,三山·时代广场,"118.271184,31.22949_118.271213,31.229442_118.271262,31.229418_118.271319,31.22941_118.273147,31.22941_118.273182,31.229418_118.273211,31.229436_118.273225,31.229471_118.273229,31.229507_118.273227,31.231403_118.273247,31.231463_118.273289,31.231515_118.273329,31.231547_118.273371,31.23157_118.273407,31.231577_118.274915,31.231567_118.27497,31.231589_118.274992,31.231639_118.274988,31.233391_118.27496,31.233448_118.274918,31.233491_118.274863,31.233508_118.274788,31.233508_118.274685,31.233497_118.27457,31.233468_118.273753,31.233174_118.272941,31.232871_118.271406,31.232266_118.271304,31.232217_118.271235,31.232152_118.271194,31.232068_118.271181,31.231974_118.271182,31.22954_118.271184,31.22949"
340202,文化路,芜湖市,B02290HZGT,31.339294,118.388535,三山里小区北区,"118.388241,31.33929_118.388316,31.340048_118.390034,31.339946_118.39001,31.339784_118.389912,31.339554_118.389584,31.339586_118.389536,31.339421_118.388868,31.339442_118.388842,31.33933_118.388808,31.339239_118.38873,31.339095_118.388934,31.338969_118.389253,31.338809_118.389256,31.33862_118.389106,31.338569_118.388905,31.33854_118.38851,31.338558_118.388122,31.338568_118.388204,31.339198_118.388241,31.33929"
340202,郁金香花园,芜湖市,B0FFF3CDGL,31.337789,118.388726,三山里小区,"118.388112,31.338569_118.388198,31.339206_118.388232,31.339294_118.388275,31.33978_118.388303,31.340056_118.389301,31.339999_118.390042,31.339954_118.39002,31.339773_118.389919,31.339546_118.389592,31.339576_118.389545,31.33941_118.388876,31.339433_118.388855,31.339327_118.388811,31.339224_118.388741,31.339096_118.388944,31.338975_118.389263,31.338809_118.389265,31.33862_118.38912,31.338567_118.389041,31.338553_118.389026,31.338322_118.388892,31.338331_118.388864,31.338098_118.388894,31.338023_118.388961,31.338019_118.388968,31.337744_118.389012,31.337722_118.389156,31.337716_118.389161,31.337576_118.389325,31.337566_118.389336,31.337346_118.389722,31.337361_118.38975,31.337284_118.389755,31.337214_118.389737,31.337057_118.389687,31.336917_118.389462,31.33681_118.389389,31.336752_118.389324,31.336664_118.389303,31.33656_118.389333,31.336053_118.389356,31.335803_118.388452,31.33577_118.38782,31.335752_118.387899,31.336632_118.388434,31.336613_118.388456,31.336872_118.387922,31.336894_118.387993,31.337596_118.388091,31.338512_118.388112,31.338569"
340202,营盘山路,芜湖市,B022900OYN,31.33702,118.388658,三山里小区南区,"118.389029,31.338482_118.389018,31.338332_118.388888,31.338341_118.388855,31.338095_118.388887,31.338018_118.388957,31.338014_118.388959,31.337835_118.388959,31.337742_118.389013,31.337713_118.389149,31.337711_118.389155,31.337567_118.38932,31.337558_118.389328,31.337337_118.389719,31.337354_118.38974,31.337295_118.389748,31.337227_118.389727,31.337059_118.389681,31.336928_118.38954,31.336865_118.389446,31.336813_118.389382,31.336761_118.389314,31.336668_118.389291,31.33656_118.389316,31.336185_118.389344,31.335812_118.387833,31.335759_118.387909,31.336625_118.38844,31.336607_118.388465,31.336879_118.387931,31.336899_118.388098,31.338512_118.389029,31.338482"
340207,赤铸山东路与海晏路交叉口,芜湖市,B02291508W,31.356572,118.439012,三潭音悦,"118.437409,31.358207_118.437297,31.358118_118.436999,31.357687_118.436763,31.357101_118.436677,31.35634_118.436784,31.356148_118.438898,31.355543_118.440486,31.355195_118.441154,31.355111_118.441307,31.35511_118.441361,31.355192_118.441398,31.355378_118.441366,31.356056_118.441296,31.356365_118.441044,31.356789_118.440572,31.357165_118.44025,31.35733_118.439263,31.357531_118.438426,31.357843_118.437686,31.3582_118.43753,31.358246_118.437409,31.358207"
340207,海晏路与涌金路交叉口东150米,芜湖市,B0FFIAAFGV,31.358414,118.438753,三潭音悦商贸中心,"118.438624,31.358914_118.43835,31.358518_118.438286,31.35855_118.438202,31.358435_118.43817,31.358341_118.438174,31.35829_118.438911,31.357915_118.439347,31.358543_118.438624,31.358914"
340207,清水街道,芜湖市,B022913RT8,31.322119,118.480361,三阳城市花园,"118.479692,31.322391_118.481068,31.322086_118.480985,31.321755_118.480825,31.321186_118.480099,31.321369_118.479904,31.321036_118.47983,31.32108_118.479347,31.321214_118.479692,31.322391"
340203,九华山路附近,芜湖市,B0FFG2UW3Q,31.28209,118.387222,上林春天里,"118.38585,31.281437_118.386153,31.281467_118.386768,31.281535_118.387044,31.281572_118.387081,31.281583_118.387202,31.281742_118.387331,31.281907_118.387505,31.281923_118.387655,31.281808_118.387763,31.281719_118.387942,31.281641_118.388173,31.281714_118.38842,31.281655_118.3886,31.281732_118.388584,31.282028_118.388911,31.282072_118.389168,31.282076_118.389294,31.281941_118.389396,31.281845_118.389439,31.281693_118.389694,31.281593_118.389785,31.281616_118.389619,31.282372_118.389544,31.282542_118.389396,31.282684_118.389139,31.282748_118.385083,31.282354_118.384853,31.282209_118.385121,31.281368_118.38585,31.281437"
340202,"文化路19号,两站广场附近",芜湖市,B022913R88,31.342907,118.38667,世纪花园(北京东路),"118.386383,31.34325_118.38598,31.343243_118.385945,31.342284_118.385982,31.342162_118.386358,31.342195_118.386555,31.34238_118.386901,31.342217_118.387467,31.343129_118.387509,31.343211_118.387515,31.343276_118.387507,31.343314_118.387491,31.343356_118.387456,31.343388_118.386829,31.343751_118.386477,31.343292_118.386383,31.34325"
340225,滨河北路与金塔路交叉口西北150米,芜湖市,B023502FGI,31.31077,117.909367,世纪花园(金塔路),"117.908769,31.310356_117.910308,31.310326_117.910314,31.310511_117.909702,31.310981_117.909155,31.311417_117.908774,31.311426_117.908769,31.310356"
340225,金塔路,芜湖市,B02350NZKA,31.311487,117.896948,秀水世纪花园,"117.895687,31.310599_117.89789,31.310523_117.897989,31.310562_117.898042,31.310672_117.898147,31.312265_117.896052,31.312609_117.895687,31.310599"
340222,繁阳镇峨溪路,芜湖市,B02290I8ZM,31.078595,118.206088,新世纪花园(沿河南路),"118.203791,31.078761_118.20566,31.07652_118.206062,31.076377_118.206342,31.076439_118.206503,31.076462_118.206631,31.07654_118.207012,31.076792_118.207363,31.077041_118.207603,31.077307_118.207517,31.077384_118.207473,31.077336_118.207309,31.077421_118.207299,31.077449_118.207469,31.077618_118.207512,31.077604_118.207635,31.077798_118.207678,31.077777_118.207853,31.077986_118.20779,31.078044_118.207949,31.078258_118.208055,31.078196_118.20844,31.078657_118.20845,31.078756_118.207885,31.079034_118.208135,31.079339_118.207116,31.080018_118.2067,31.080067_118.206451,31.080253_118.206175,31.080558_118.205869,31.080753_118.205784,31.080771_118.205683,31.080748_118.205561,31.080639_118.205359,31.08076_118.203791,31.078804_118.203791,31.078761"
340223,籍山镇惠民南路新世纪花园旁,芜湖市,B02290I33H,30.916256,118.340632,联大·新世纪花园,"118.33919,30.914858_118.339882,30.914881_118.339893,30.915062_118.340139,30.915058_118.340142,30.915138_118.340654,30.915177_118.340885,30.914996_118.340965,30.91489_118.342339,30.915338_118.341912,30.91624_118.341875,30.916369_118.342001,30.916894_118.342097,30.917377_118.34052,30.917877_118.340228,30.917189_118.339144,30.916685_118.339133,30.916537_118.338624,30.916526_118.338637,30.915672_118.339938,30.915725_118.339943,30.915504_118.339836,30.91535_118.339839,30.91512_118.339176,30.915099_118.33919,30.914858"
340223,振南路与春谷南路交叉口南150米,芜湖市,B022913RW7,30.905328,118.328864,蔚蓝世纪,"118.328304,30.906278_118.328083,30.906558_118.328831,30.907083_118.329875,30.907021_118.329832,30.906485_118.329687,30.906471_118.329757,30.905596_118.33032,30.905645_118.330206,30.904763_118.330157,30.904715_118.329955,30.904766_118.329145,30.903988_118.329097,30.903695_118.327214,30.904135_118.327732,30.905164_118.327973,30.905265_118.328077,30.905256_118.328033,30.90588_118.328304,30.906278"
340202,长江中路15号附近,芜湖市,B02290I7B9,31.327661,118.361673,世茂滨江中心,"118.362042,31.328487_118.361785,31.32838_118.36072,31.327814_118.361342,31.326982_118.361396,31.326907_118.36248,31.327255_118.362112,31.328423_118.362042,31.328487"
340202,滨江路5号,芜湖市,B02290HZOW,31.342192,118.357179,世茂滨江花园,"118.356294,31.34463_118.357155,31.344723_118.357171,31.344595_118.357452,31.344609_118.357627,31.343427_118.357611,31.343131_118.357825,31.342259_118.358077,31.340252_118.358002,31.340201_118.356709,31.340098_118.356605,31.34016_118.356559,31.340217_118.356471,31.341331_118.356519,31.341432_118.356623,31.341619_118.356621,31.341729_118.356554,31.342939_118.356795,31.343063_118.356825,31.343129_118.356758,31.343555_118.356615,31.343594_118.356602,31.343729_118.356473,31.344435_118.356315,31.344412_118.356294,31.34463"
340202,,芜湖市,B0FFH0KAVZ,31.332067,118.359693,滨江花园翠铂湾,"118.359145,31.333906_118.359266,31.333507_118.359385,31.333159_118.359454,31.332986_118.359546,31.332813_118.359631,31.332688_118.359827,31.3324_118.360014,31.332128_118.360183,31.331858_118.361175,31.330283_118.360508,31.330043_118.359411,31.331871_118.358324,31.333704_118.358666,31.334087_118.359146,31.333988_118.359145,31.333906"
340207,赤铸山路与海晏路交汇处,芜湖市,B022915DWV,31.352867,118.444137,东城豪庭,"118.441819,31.3535_118.442892,31.353548_118.442905,31.35438_118.445386,31.354361_118.445757,31.354364_118.446092,31.354338_118.446228,31.354256_118.446274,31.354146_118.446279,31.353987_118.446132,31.351612_118.446063,31.351505_118.44197,31.351517_118.441784,31.351623_118.441819,31.3535"
340225,宝晋路与幸福路交汇处,芜湖市,B0FFGCT7V4,31.288958,117.924856,东方家园A区,"117.925016,31.290005_117.925287,31.290064_117.925474,31.289906_117.925517,31.289738_117.925619,31.28922_117.925641,31.289125_117.926308,31.289219_117.926677,31.288725_117.926483,31.288601_117.926467,31.28856_117.926499,31.288456_117.926307,31.288342_117.926412,31.288202_117.925755,31.287807_117.925721,31.287834_117.924613,31.287675_117.924047,31.28835_117.923533,31.288857_117.923059,31.289251_117.923012,31.289342_117.923126,31.289489_117.924102,31.290119_117.924867,31.290396_117.925016,31.290005"
340225,军二路与渡江路交汇处,芜湖市,B0FFGAPKPZ,31.290519,117.931158,东方家园B区,"117.929998,31.292071_117.929826,31.292016_117.929794,31.291951_117.929697,31.290847_117.92981,31.290146_117.930282,31.289403_117.930913,31.288531_117.931073,31.288594_117.933099,31.290184_117.932642,31.290764_117.932307,31.291158_117.932066,31.291498_117.93191,31.291917_117.931752,31.292032_117.929998,31.292071"
340225,湖市无为县无城镇幸福路东方家园A区,芜湖市,B0FFHPNW01,31.289626,117.925922,陶行知幼儿园,"117.925715,31.289942_117.925973,31.28964_117.925941,31.289553_117.925647,31.289305_117.925615,31.289302_117.925521,31.289839_117.925715,31.289942"
340202,砻坊路,芜湖市,B022900FZL,31.317283,118.393525,东方海伦堡,"118.392915,31.316145_118.392823,31.316162_118.392793,31.316202_118.392764,31.317226_118.392729,31.317734_118.392676,31.318299_118.39418,31.318337_118.394257,31.317653_118.394501,31.316778_118.394518,31.316714_118.394518,31.316636_118.39448,31.316579_118.393946,31.316358_118.392915,31.316145"
340207,涌金路南200米,芜湖市,B02291432L,31.358549,118.433491,东方红郡(涌金路),"118.430079,31.358501_118.431037,31.357563_118.431068,31.357539_118.431109,31.357505_118.431147,31.357493_118.431184,31.357483_118.431907,31.357384_118.432318,31.357291_118.432715,31.357194_118.434517,31.356686_118.436038,31.356248_118.436066,31.356249_118.436111,31.356257_118.43615,31.35627_118.43618,31.356291_118.436212,31.356318_118.436251,31.356362_118.436259,31.35639_118.436264,31.356426_118.436298,31.356889_118.436345,31.357175_118.436472,31.357528_118.436709,31.357931_118.436964,31.358304_118.436976,31.358326_118.436982,31.358343_118.436952,31.358624_118.436947,31.358643_118.436937,31.35866_118.436376,31.359082_118.435885,31.359396_118.435626,31.35953_118.434964,31.359779_118.434384,31.359937_118.433723,31.36004_118.432479,31.360221_118.430783,31.36039_118.430747,31.360384_118.430718,31.360371_118.430395,31.36016_118.430376,31.36014_118.43036,31.360113_118.430238,31.35951_118.430075,31.358525_118.430079,31.358501"
340202,吉和北路21号(临近黄山西路),芜湖市,B02290HXKW,31.338315,118.359909,东方花园(吉和北路),"118.358595,31.33728_118.358445,31.339173_118.358848,31.339193_118.358873,31.339141_118.35972,31.339325_118.360837,31.339655_118.361536,31.337555_118.361494,31.33749_118.361425,31.337458_118.35863,31.337196_118.358595,31.33728"
340223,学士路与新塘路交汇处东北150米,芜湖市,B0FFFS3NO6,30.937172,118.361638,东方花园(新塘路),"118.3599,30.935247_118.35975,30.93538_118.359294,30.938114_118.360887,30.938321_118.361002,30.938139_118.361171,30.938221_118.361305,30.938307_118.361472,30.938505_118.3616,30.938601_118.362121,30.938845_118.363059,30.939209_118.363102,30.939213_118.363172,30.939204_118.36322,30.939107_118.363612,30.938367_118.36381,30.937782_118.363912,30.937189_118.363928,30.936379_118.363886,30.936291_118.363832,30.936259_118.361455,30.935923_118.361541,30.935449_118.3599,30.935247"
340207,九华中路52号,芜湖市,B0FFG3EFQD,31.360481,118.391045,东方蓝海(九华中路),"118.393693,31.362621_118.389903,31.361841_118.38986,31.361823_118.389819,31.361787_118.389775,31.361715_118.388745,31.358965_118.388706,31.358846_118.388723,31.358757_118.388771,31.35872_118.388851,31.358689_118.388952,31.358683_118.389834,31.358611_118.391394,31.35841_118.391564,31.358578_118.392011,31.35957_118.39248,31.360526_118.392675,31.360549_118.393067,31.361195_118.393263,31.361466_118.393713,31.362614_118.393693,31.362621"
340202,,芜湖市,B0FFINMFUH,31.321751,118.387982,东方龙城景福苑,"118.386648,31.321581_118.38669,31.321366_118.386713,31.321017_118.386698,31.32095_118.387385,31.321138_118.387715,31.321123_118.387719,31.320844_118.388298,31.320829_118.3886,31.320813_118.388873,31.320808_118.388921,31.320834_118.388922,31.320882_118.388905,31.320977_118.3888,31.321404_118.38861,31.322226_118.388381,31.323091_118.387978,31.323162_118.387812,31.323158_118.387762,31.322699_118.387713,31.322599_118.387646,31.32218_118.387541,31.321695_118.386648,31.321581"
340202,康复路与砻城路交叉口西南100米,芜湖市,B0FFG7Y8YH,31.321776,118.389979,东方龙城湛露苑,"118.389414,31.322683_118.390701,31.32224_118.390538,31.321778_118.390548,31.321607_118.390568,31.321356_118.390656,31.321128_118.389726,31.320863_118.389615,31.320948_118.389419,31.321891_118.38934,31.322371_118.389308,31.322616_118.389414,31.322683"
340202,环城东路,芜湖市,B0FFGD3QZB,31.319453,118.388393,东方龙城木兰苑,"118.387595,31.320641_118.388786,31.320651_118.389376,31.318295_118.389253,31.318208_118.388161,31.318352_118.388123,31.31876_118.387592,31.318758_118.387595,31.320641"
340202,,芜湖市,B0FFHYNMMD,31.317383,118.388494,东方龙城清荷苑,"118.387653,31.318128_118.38929,31.318192_118.389347,31.318182_118.389419,31.318145_118.389433,31.318133_118.389482,31.317708_118.389505,31.317298_118.3895,31.317209_118.38947,31.316858_118.389423,31.316484_118.389316,31.31647_118.388315,31.316664_118.387563,31.316812_118.38732,31.316866_118.387347,31.317119_118.387379,31.31744_118.387398,31.317629_118.38741,31.317869_118.387602,31.317872_118.387617,31.318119_118.387653,31.318128"
340202,大砻坊公共服务中心大砻坊公共服务中心东方龙城,芜湖市,B0FFFE79TD,31.319642,118.395497,东方龙城甘棠苑,"118.395242,31.320639_118.394606,31.319191_118.394244,31.319189_118.394351,31.318689_118.395447,31.319035_118.396579,31.319332_118.396487,31.319493_118.396489,31.31972_118.396553,31.320128_118.395242,31.320639"
340202,仓津路与东外街交汇处,芜湖市,B0FFGF45KN,31.320129,118.390821,东方龙城秉心苑,"118.390071,31.319725_118.389871,31.320619_118.390052,31.320736_118.390712,31.32094_118.390942,31.320909_118.391157,31.320614_118.391629,31.320234_118.391887,31.320055_118.392353,31.319973_118.392348,31.31966_118.391895,31.319673_118.391809,31.319791_118.39155,31.319813_118.391331,31.319822_118.390701,31.319817_118.390668,31.3193_118.390187,31.31919_118.390071,31.319725"
340202,康复路,芜湖市,B0FFG93W5F,31.323245,118.397091,东方龙城绿竹苑,"118.396606,31.322469_118.395989,31.323467_118.397234,31.323981_118.397319,31.323819_118.397536,31.323879_118.397684,31.323859_118.397842,31.323768_118.398055,31.323464_118.398036,31.323312_118.397949,31.322865_118.396606,31.322469"
340202,东方路与湖滨路交叉口西南100米,芜湖市,B0FFGFSN22,31.322519,118.398372,东方龙城采薇苑,"118.395235,31.321302_118.395219,31.321273_118.395214,31.321247_118.395216,31.32122_118.395226,31.321188_118.395244,31.321152_118.395266,31.321131_118.395743,31.320984_118.395946,31.320954_118.39605,31.320932_118.39618,31.320893_118.396277,31.320848_118.396944,31.320522_118.396963,31.320517_118.396984,31.320517_118.397266,31.320559_118.397286,31.320564_118.397494,31.320711_118.397624,31.320778_118.397793,31.320837_118.398191,31.320946_118.398209,31.320954_118.398217,31.320968_118.398203,31.321494_118.398207,31.321507_118.398221,31.321517_118.398375,31.321523_118.398383,31.321529_118.398391,31.321542_118.398395,31.32202_118.398404,31.322032_118.398415,31.322036_118.398937,31.32205_118.398953,31.322056_118.398962,31.322063_118.398965,31.322072_118.398967,31.322084_118.398671,31.322736_118.398648,31.322748_118.398629,31.322748_118.398606,31.322745_118.397157,31.322312_118.396317,31.322023_118.396007,31.321893_118.395637,31.321692_118.395456,31.321546_118.395355,31.321441_118.395235,31.321302"
340202,湖滨路与砻城路交叉口北150米,芜湖市,B0FFF2M6AG,31.32514,118.391659,雅乐苑北区,"118.390986,31.324976_118.390792,31.32426_118.390868,31.32425_118.392051,31.324352_118.392375,31.325244_118.392491,31.32571_118.392501,31.325906_118.39247,31.32597_118.392422,31.325993_118.392336,31.32602_118.391097,31.325843_118.390986,31.324976"
340202,康复路与砻城路交叉口西北150米,芜湖市,B0FFF29DNC,31.3235,118.390429,雅乐苑南区,"118.388979,31.32402_118.389062,31.324096_118.391122,31.324139_118.391857,31.324233_118.391932,31.324153_118.391741,31.323782_118.391157,31.322579_118.390862,31.322556_118.389145,31.323172_118.389059,31.323298_118.388979,31.32402"
340221,世纪大道与渡春路交叉口东北150米,芜湖市,B0FFFS8CLE,31.155279,118.568915,东湖上郡,"118.570204,31.155471_118.570177,31.155335_118.56857,31.154256_118.568297,31.154058_118.568179,31.154177_118.568033,31.15441_118.567937,31.154713_118.56792,31.155065_118.567952,31.15526_118.568045,31.155477_118.568221,31.155731_118.569228,31.156435_118.570204,31.155471"
340221,芜湖北路与长虹路交叉口东150米(世纪大道二中旁),芜湖市,B0FFIATRMK,31.151885,118.572224,东湖华庭,"118.571325,31.15312_118.571269,31.153107_118.570687,31.151771_118.570706,31.151698_118.570741,31.151645_118.570845,31.151585_118.572999,31.150658_118.573101,31.150871_118.573203,31.150901_118.573289,31.151124_118.573407,31.151739_118.573627,31.151819_118.573793,31.152003_118.573232,31.152524_118.572583,31.152855_118.572441,31.152568_118.572194,31.152646_118.572044,31.152453_118.571996,31.152455_118.571325,31.15312"
340207,万春西路与九华北路交汇处向东900米,芜湖市,B02291444M,31.375514,118.4045,东紫园(万春西路),"118.401839,31.377133_118.407083,31.377436_118.407157,31.373712_118.407047,31.373684_118.406609,31.373746_118.405832,31.373827_118.405415,31.373852_118.405046,31.373864_118.404468,31.373844_118.403905,31.373802_118.403427,31.373747_118.403144,31.373691_118.402881,31.373647_118.40266,31.373602_118.402441,31.373554_118.402084,31.373463_118.401923,31.373552_118.401866,31.374472_118.401839,31.377133"
340202,神山口,芜湖市,B02290I4OC,31.341675,118.402383,东苑小区,"118.401743,31.342243_118.403001,31.342236_118.403044,31.342192_118.403065,31.342133_118.403079,31.342055_118.403071,31.341711_118.402936,31.341622_118.402869,31.341535_118.402853,31.341489_118.402891,31.341093_118.40167,31.341068_118.40166,31.341214_118.401681,31.341317_118.401839,31.341484_118.402014,31.341686_118.401979,31.341771_118.401888,31.34189_118.401754,31.342_118.401711,31.342062_118.401703,31.342117_118.401743,31.342243"
340203,新时代商业街北150米,芜湖市,B02290HY6I,31.31658,118.371352,江岸明珠东苑,"118.369892,31.316968_118.369935,31.315676_118.370015,31.315607_118.370128,31.315607_118.371721,31.315639_118.37186,31.315896_118.372231,31.316469_118.372488,31.316822_118.373287,31.317715_118.373164,31.317779_118.372359,31.31777_118.372306,31.317601_118.37222,31.317569_118.37178,31.317536_118.371699,31.317468_118.371678,31.317275_118.371646,31.317074_118.371614,31.316982_118.371565,31.316968_118.369892,31.316968"
340207,万春西路153号,芜湖市,B022914NQ0,31.376191,118.427535,东部星城东区,"118.427187,31.37592_118.427064,31.374269_118.426889,31.374276_118.426831,31.373756_118.426743,31.373762_118.426695,31.372985_118.428158,31.372913_118.428372,31.373118_118.428883,31.375904_118.42904,31.377012_118.42921,31.378071_118.428861,31.378083_118.428857,31.378524_118.427285,31.378463_118.42556,31.378294_118.42564,31.376856_118.425656,31.376664_118.425667,31.376403_118.425668,31.376092_118.426495,31.376061_118.426518,31.37632_118.427197,31.37629_118.427187,31.37592"
340207,万春西路,芜湖市,B0FFHEZFSM,31.376474,118.423347,东部星城西区,"118.420261,31.378138_118.420179,31.378046_118.420217,31.377694_118.420289,31.377289_118.420429,31.377002_118.420621,31.37671_118.421016,31.376365_118.421321,31.3762_118.421901,31.375957_118.422423,31.375648_118.422807,31.375328_118.423156,31.374876_118.423382,31.374361_118.423545,31.374038_118.423671,31.373854_118.423856,31.373685_118.424044,31.373527_118.424334,31.373346_118.424454,31.373369_118.424578,31.373424_118.424926,31.373997_118.425162,31.374574_118.425339,31.375169_118.425474,31.376094_118.425436,31.376639_118.425345,31.377569_118.425291,31.378327_118.425205,31.378367_118.420261,31.378138"
340225,渡江路,芜湖市,B0FFFRN4FB,31.286986,117.93578,中俊·理想城,"117.931333,31.287788_117.932004,31.286782_117.932444,31.285774_117.93257,31.285737_117.933978,31.286544_117.93467,31.286798_117.934917,31.286861_117.935173,31.286903_117.935339,31.286915_117.935506,31.28691_117.935518,31.284536_117.935515,31.283688_117.937342,31.283692_117.9385,31.283724_117.938583,31.283944_117.938624,31.285613_117.938618,31.286576_117.938613,31.287293_117.938597,31.289189_117.938431,31.289278_117.935668,31.289317_117.935161,31.289317_117.934536,31.28937_117.933941,31.289569_117.933678,31.289647_117.931333,31.287788"
340202,新芜路108号附近,芜湖市,B0FFGN0E7Q,31.327115,118.366772,中和新村,"118.366046,31.326777_118.366056,31.326689_118.36608,31.326642_118.366107,31.326624_118.36615,31.326613_118.366193,31.326608_118.36742,31.326611_118.367457,31.32662_118.367485,31.326638_118.367507,31.326668_118.367511,31.326699_118.367554,31.327498_118.36753,31.327526_118.367492,31.327551_118.367457,31.327572_118.367406,31.32758_118.367349,31.327582_118.366124,31.327566_118.366095,31.327557_118.366073,31.327542_118.366059,31.327524_118.366045,31.327507_118.366046,31.326777"
340203,乌霞山东路28号,芜湖市,B0FFFS2NHB,31.29932,118.382561,中国建筑第七工程局第二建筑公司生活小区,"118.38127,31.299593_118.381324,31.29855_118.382279,31.298557_118.382756,31.298591_118.383464,31.298642_118.383576,31.298661_118.383615,31.298678_118.383604,31.298795_118.383534,31.299201_118.383534,31.299235_118.383537,31.299265_118.383606,31.299352_118.383829,31.299595_118.383843,31.29963_118.383695,31.299843_118.383483,31.300095_118.383368,31.300241_118.383338,31.300246_118.382096,31.300154_118.382171,31.299655_118.382131,31.299655_118.38127,31.299593"
340203,乌霞山西路南150米,芜湖市,B022914J59,31.296635,118.371421,中央城A区,"118.370386,31.297773_118.370266,31.297622_118.370352,31.296513_118.370419,31.295812_118.370517,31.295732_118.370561,31.295201_118.372159,31.295318_118.372105,31.296179_118.372455,31.296191_118.372514,31.29622_118.372503,31.296425_118.372686,31.296506_118.372604,31.297654_118.372523,31.297768_118.372385,31.297825_118.372175,31.297859_118.370386,31.297773"
340203,大工山路与花津南路交汇处西北200米,芜湖市,B0FFG25JSX,31.293873,118.371672,中央城B区,"118.372661,31.29261_118.372723,31.292635_118.372822,31.292766_118.37279,31.293987_118.372736,31.295207_118.370527,31.295121_118.370458,31.295052_118.370684,31.292485_118.372661,31.29261"
340203,中央城B区对面,芜湖市,B022914ZX0,31.291378,118.371828,云鼎国际,"118.370775,31.290728_118.373003,31.290776_118.372946,31.291796_118.372896,31.291874_118.372839,31.29193_118.372702,31.292_118.372531,31.292048_118.372332,31.292066_118.370703,31.291965_118.370775,31.290728"
340203,乌霞山西路南200米,芜湖市,B022914XUS,31.296401,118.368188,中央城C区,"118.365944,31.297528_118.365914,31.297437_118.366029,31.296275_118.366923,31.296307_118.366965,31.295845_118.366803,31.29577_118.366309,31.295741_118.366041,31.295779_118.366132,31.295092_118.36618,31.295014_118.366269,31.295005_118.37019,31.295199_118.370284,31.295225_118.370311,31.295302_118.370115,31.297679_118.370077,31.297741_118.37001,31.297755_118.366006,31.297578_118.365944,31.297528"
340203,乌霞山西路中央城C区,芜湖市,B0FFF752PS,31.299526,118.366623,儒林西苑,"118.364355,31.297782_118.369191,31.298075_118.369159,31.298294_118.368926,31.29871_118.368924,31.298757_118.368944,31.2988_118.36923,31.298969_118.36923,31.299157_118.368828,31.299666_118.368325,31.299666_118.36819,31.301371_118.368107,31.301512_118.365164,31.301397_118.365029,31.301267_118.364188,31.298016_118.364355,31.297782"
340203,大工山路北200米,芜湖市,B022914O1D,31.293849,118.367914,中央城D区,"118.366444,31.294404_118.366399,31.294894_118.370348,31.295062_118.37042,31.294329_118.370038,31.294304_118.369836,31.294164_118.369871,31.293815_118.369549,31.2938_118.36957,31.293692_118.369033,31.293646_118.369052,31.293163_118.367887,31.293122_118.367986,31.292286_118.366307,31.292147_118.366174,31.294391_118.366444,31.294404"
340203,花津南路39号中央城,芜湖市,B022914OO4,31.296221,118.365011,中央城E区,"118.364307,31.297419_118.364234,31.297381_118.364138,31.297303_118.364091,31.29721_118.364119,31.296416_118.3642,31.295101_118.364206,31.295022_118.364221,31.294999_118.364254,31.294981_118.364327,31.294964_118.365795,31.295066_118.365925,31.295092_118.365961,31.295125_118.365973,31.295172_118.365797,31.29735_118.365766,31.297402_118.365723,31.297439_118.365683,31.297465_118.365612,31.297483_118.364397,31.297429_118.364307,31.297419"
340203,中山南路4号站,芜湖市,B022914OL6,31.293447,118.365209,中央城F区,"118.364223,31.294632_118.36432,31.294748_118.365902,31.294851_118.365979,31.294765_118.366042,31.294261_118.366219,31.292248_118.366208,31.2922_118.366172,31.292162_118.364618,31.292062_118.364383,31.292215_118.364223,31.294632"
340203,花津南路与文昌西路交汇处西北侧,芜湖市,B0FFFPYISM,31.288815,118.371979,中央城·学府壹号,"118.370814,31.290559_118.370882,31.290626_118.372826,31.290689_118.373003,31.290498_118.373194,31.287214_118.373128,31.287078_118.370936,31.286923_118.370814,31.290559"
340203,花津南路中央城财富街1号楼附近,芜湖市,B0FFIOW597,31.297508,118.373563,中央城·财富街1号写字楼,"118.373083,31.297855_118.373151,31.297953_118.373996,31.297969_118.374047,31.29795_118.374085,31.297703_118.374117,31.2971_118.373095,31.297043_118.373052,31.297063_118.373015,31.297758_118.373083,31.297855"
340225,无城镇金河街道,芜湖市,B023501GUT,31.308489,117.89655,中央花园北区,"117.89485,31.307039_117.894984,31.306932_117.89732,31.30685_117.897336,31.307402_117.897985,31.307388_117.898084,31.309945_117.897972,31.310053_117.89552,31.31014_117.89485,31.307039"
340225,襄安路,芜湖市,B023502F9A,31.306276,117.895964,中央花园南区,"117.894751,31.306256_117.895829,31.305878_117.896631,31.305442_117.896808,31.305701_117.896934,31.306155_117.897031,31.306168_117.897014,31.306372_117.896755,31.306377_117.896736,31.306728_117.894887,31.306827_117.894751,31.306256"
340207,政务新区中江大道与仁和路交汇处,芜湖市,B0FFFS6GLR,31.350708,118.434708,中央公园,"118.429974,31.351397_118.446496,31.351404_118.446781,31.35153_118.447671,31.351537_118.447753,31.351634_118.447829,31.351869_118.447945,31.352116_118.448371,31.352159_118.448771,31.352155_118.449232,31.35246_118.449656,31.353152_118.44961,31.354386_118.449792,31.354587_118.450027,31.354743_118.450069,31.353053_118.450073,31.352736_118.450045,31.352442_118.449999,31.352149_118.449921,31.351907_118.449894,31.351617_118.450086,31.350264_118.450203,31.348568_118.448339,31.349083_118.447919,31.349308_118.447639,31.349797_118.446447,31.349773_118.446439,31.349934_118.415938,31.349961_118.415943,31.351393_118.429974,31.351397"
340223,利民北路86号,芜湖市,B02290I8W7,30.923449,118.331943,雄风·中央花园B区,"118.331462,30.923985_118.33165,30.923432_118.331682,30.92322_118.331708,30.922847_118.331729,30.922835_118.33232,30.92286_118.332334,30.922879_118.332296,30.923579_118.332223,30.923877_118.332189,30.923936_118.332118,30.923975_118.331795,30.924017_118.331678,30.924059_118.331604,30.924059_118.33147,30.92403_118.331462,30.923985"
340223,利民北路与环城北路交叉口西南150米,芜湖市,B02290I8HL,30.922962,118.330663,雄风·中央花园A区,"118.330271,30.923539_118.33003,30.923391_118.329899,30.922998_118.329763,30.922747_118.329603,30.922525_118.329674,30.922437_118.329799,30.922144_118.330681,30.922273_118.33082,30.922349_118.330996,30.922416_118.331257,30.922461_118.331532,30.922487_118.331516,30.923212_118.331339,30.923796_118.331253,30.923944_118.330271,30.923539"
340202,中山路1号新百金陵大酒店1-6层,芜湖市,B0229009TH,31.32526,118.367962,新百大厦,"118.368417,31.325587_118.368466,31.325565_118.368488,31.325546_118.368504,31.32552_118.368508,31.325499_118.368508,31.325482_118.368264,31.324806_118.368249,31.32479_118.368238,31.324788_118.367495,31.325_118.367443,31.325022_118.367426,31.325038_118.367415,31.325059_118.367411,31.325081_118.367412,31.3251_118.367431,31.325148_118.367556,31.325573_118.367576,31.325606_118.367601,31.325628_118.367623,31.325643_118.367644,31.325649_118.367683,31.325654_118.368417,31.325587"
340203,南塘湖路与乌霞山东路交叉口,芜湖市,B0FFG82I43,31.299033,118.384792,中建500米,"118.384132,31.299699_118.384691,31.299826_118.385352,31.298506_118.385352,31.298379_118.385299,31.29836_118.384629,31.298407_118.38451,31.299303_118.384132,31.299699"
340202,联华超市东门斜对面,芜湖市,B0FFKH6653,31.363066,118.367908,金桂苑,"118.368253,31.36393_118.368141,31.364069_118.368064,31.364204_118.367597,31.364098_118.367533,31.364048_118.367543,31.363301_118.367417,31.362239_118.368506,31.362163_118.36852,31.362291_118.368391,31.362747_118.368267,31.362958_118.368172,31.363101_118.368029,31.363185_118.368005,31.363601_118.368394,31.36367_118.368364,31.363764_118.368253,31.36393"
340203,利民西路340号,芜湖市,B02290HX7H,31.31337,118.376718,中江新村西区,"118.375691,31.314288_118.376865,31.314345_118.37689,31.313932_118.378008,31.314018_118.378261,31.314027_118.378409,31.314032_118.378485,31.312967_118.378254,31.312954_118.378252,31.313063_118.377622,31.313029_118.377523,31.312969_118.377208,31.312987_118.377223,31.312772_118.377718,31.312811_118.377739,31.312549_118.375992,31.312433_118.375361,31.312401_118.375358,31.313114_118.375383,31.313388_118.375495,31.313398_118.375487,31.313849_118.375342,31.313844_118.375359,31.314155_118.375406,31.314309_118.375691,31.314288"
340208,075乡道东150米,芜湖市,B0FFFS6FXK,31.233138,118.284261,中沟小区,"118.283845,31.23313_118.283533,31.233715_118.284262,31.233967_118.284501,31.23374_118.284724,31.233098_118.284876,31.232472_118.284893,31.232366_118.284066,31.232389_118.28405,31.232536_118.283845,31.23313"
340207,港湾路7号,芜湖市,B02290I27H,31.412678,118.362337,中交二航局芜湖住宅区,"118.364746,31.413171_118.365182,31.413165_118.365185,31.413348_118.364787,31.413346_118.364792,31.413535_118.362664,31.413593_118.362189,31.413591_118.362185,31.413271_118.362,31.412849_118.362842,31.412846_118.362857,31.413106_118.363212,31.413097_118.363191,31.412595_118.362739,31.412714_118.361872,31.412711_118.361712,31.41264_118.361648,31.412585_118.361567,31.412257_118.361465,31.412073_118.361422,31.411763_118.362904,31.41187_118.364159,31.411996_118.364151,31.412497_118.363958,31.412528_118.363259,31.412591_118.363248,31.412741_118.364242,31.412743_118.364257,31.412947_118.36471,31.412915_118.364744,31.412934_118.364746,31.413171"
340202,铁艺路3,芜湖市,B02290I6AM,31.339461,118.382793,中兴花园(铁艺路),"118.382188,31.340532_118.382614,31.340495_118.383185,31.340424_118.383411,31.340447_118.383698,31.340577_118.38395,31.340555_118.384068,31.340518_118.384103,31.340481_118.384124,31.340426_118.384105,31.340257_118.383708,31.339666_118.38307,31.338804_118.382915,31.338724_118.383033,31.338355_118.383226,31.33819_118.383379,31.338115_118.383218,31.337879_118.381437,31.338878_118.381611,31.339102_118.381791,31.339182_118.381791,31.339258_118.382198,31.339487_118.381976,31.33975_118.382271,31.339911_118.382029,31.340108_118.382188,31.340532"
340202,"中和路33号,融汇中江广场",芜湖市,B02290I6P6,31.325514,118.366729,中西友好花园,"118.367186,31.325074_118.366628,31.325154_118.366674,31.325372_118.366006,31.325422_118.366033,31.325776_118.366075,31.325818_118.366115,31.325845_118.366152,31.325846_118.367396,31.325727_118.367186,31.325074"
340222,渡江大道(中)附近,芜湖市,B0FFG932DC,31.091477,118.201208,中辰一品,"118.20127,31.088717_118.202053,31.089443_118.202445,31.089815_118.202877,31.090327_118.203129,31.09063_118.203351,31.090945_118.20378,31.091653_118.203941,31.091948_118.203818,31.092213_118.199671,31.09372_118.199248,31.093472_118.199095,31.092762_118.199089,31.09202_118.199162,31.09047_118.199435,31.090522_118.19973,31.090378_118.199819,31.090224_118.200288,31.090396_118.200286,31.090401_118.20127,31.088717"
340202,"吉和北路5号,近中山北路",芜湖市,B0FFF39WD5,31.342428,118.358816,临江小区,"118.357945,31.342491_118.358067,31.341744_118.359113,31.341848_118.359044,31.342136_118.359122,31.342154_118.359074,31.342366_118.359402,31.34242_118.359711,31.342483_118.359411,31.343216_118.359384,31.343273_118.359294,31.343323_118.358918,31.343248_118.359004,31.342647_118.357945,31.342491"
340202,"银湖中路27号,绿影新村附近",芜湖市,B022914J4K,31.355766,118.374024,丽光小区,"118.374385,31.356212_118.373597,31.356167_118.373583,31.356123_118.373688,31.355738_118.373714,31.355533_118.373746,31.355214_118.374233,31.355229_118.374203,31.355647_118.374477,31.355658_118.37443,31.356185_118.374385,31.356212"
340221,火龙岗路与迎宾大道交叉口西南100米,芜湖市,B0FFFS7V2C,31.142852,118.59178,丽晶财富广场,"118.588843,31.143054_118.590062,31.143061_118.590878,31.1431_118.591314,31.143123_118.591766,31.143154_118.592716,31.143272_118.593498,31.143391_118.594483,31.143578_118.594564,31.143571_118.594613,31.143532_118.594757,31.14291_118.594734,31.142894_118.594204,31.142764_118.592936,31.14256_118.592244,31.142453_118.591675,31.142417_118.591279,31.142405_118.591275,31.14233_118.590679,31.142335_118.589504,31.142332_118.588927,31.142329_118.58881,31.142913_118.588813,31.143053_118.588843,31.143054"
340202,北京西路与滨江路交叉口东北100米,芜湖市,B0FFG8D2RJ,31.33585,118.359832,乐园小区,"118.35879,31.336233_118.358956,31.335383_118.359057,31.335267_118.35919,31.335269_118.361018,31.335383_118.360977,31.335611_118.360856,31.335616_118.360818,31.33584_118.360149,31.335792_118.360139,31.336047_118.36077,31.336078_118.360771,31.336508_118.359946,31.336413_118.359145,31.336372_118.359144,31.336292_118.35907,31.336289_118.359072,31.336255_118.35879,31.336233"
340202,滨江公共服务中心九华中路305号,芜湖市,B02290I7EM,31.323013,118.380316,九华新村小区,"118.379607,31.322327_118.381011,31.32255_118.381037,31.322593_118.380788,31.323591_118.380751,31.323789_118.38072,31.323816_118.380667,31.323824_118.379893,31.323602_118.379949,31.323384_118.37975,31.32332_118.379815,31.32298_118.379866,31.32271_118.379398,31.322637_118.379421,31.322463_118.379579,31.32247_118.379607,31.322327"
340202,环城北路4号,芜湖市,B02290I7BU,31.324713,118.381813,九莲塘华联商城,"118.382811,31.324234_118.38279,31.324211_118.382035,31.324277_118.381254,31.324524_118.380919,31.324628_118.38088,31.32466_118.380793,31.325171_118.381195,31.325222_118.381667,31.325188_118.381764,31.325052_118.381977,31.324931_118.382785,31.324829_118.38282,31.32427_118.382811,31.324234"
340202,010县道,芜湖市,B0FFHH2ONS,31.283738,118.466301,九里香溪小区3期,"118.468576,31.283257_118.468484,31.284006_118.468246,31.284003_118.468102,31.284834_118.464107,31.284527_118.464287,31.283114_118.464367,31.28309_118.464636,31.283107_118.464712,31.282599_118.468003,31.28289_118.46804,31.282945_118.468021,31.283178_118.468576,31.283257"
340203,鲁港镇,芜湖市,B02290IA2S,31.301141,118.383085,九龙新村,"118.382283,31.302549_118.382291,31.302088_118.382768,31.301394_118.382561,31.301334_118.382637,31.301067_118.381559,31.30102_118.381564,31.300725_118.380736,31.300674_118.380751,31.300134_118.382889,31.300299_118.383358,31.30034_118.383479,31.300365_118.384058,31.299698_118.384721,31.299847_118.384493,31.300562_118.384151,31.3005_118.384091,31.300777_118.384413,31.300837_118.384193,31.301809_118.384043,31.302522_118.383911,31.302643_118.382283,31.302549"
340221,湾址镇,芜湖市,B02290I9Z5,31.130974,118.57954,书香名第东区,"118.577783,31.131498_118.578139,31.130186_118.578403,31.13022_118.578409,31.130195_118.578711,31.130222_118.578774,31.129939_118.580774,31.130214_118.580675,31.130662_118.580795,31.130885_118.58138,31.131007_118.581133,31.131936_118.579816,31.131622_118.579744,31.1319_118.577783,31.131498"
340221,湾址镇文教园区,芜湖市,B02290I9Z6,31.130507,118.576976,书香名第西区,"118.577612,31.129725_118.576346,31.129557_118.57604,31.131197_118.577652,31.131387_118.577969,31.130154_118.577532,31.130083_118.577612,31.129725"
340202,银湖北路85号,芜湖市,B022913RCI,31.370604,118.372668,云龙阳光地带,"118.373067,31.371296_118.372779,31.371185_118.372477,31.371055_118.372178,31.370859_118.37186,31.370592_118.371648,31.37039_118.371567,31.370261_118.371592,31.370076_118.371727,31.37008_118.373447,31.37017_118.373394,31.371256_118.373369,31.371399_118.373067,31.371296"
340202,张家山公共服务中心九华中路132-9号,芜湖市,B02290I7L7,31.346427,118.381722,五一小区,"118.380824,31.346169_118.380918,31.346788_118.381147,31.34692_118.381448,31.347037_118.381714,31.346909_118.382808,31.346366_118.382716,31.34616_118.382629,31.346148_118.382511,31.345988_118.381439,31.345967_118.38142,31.346117_118.380824,31.346169"
340207,赤铸山东路1号,芜湖市,B022915DAX,31.354102,118.456245,芜湖市第一人民医院,"118.454829,31.355615_118.455467,31.355618_118.455509,31.355712_118.455634,31.355734_118.456363,31.355825_118.456776,31.355691_118.456995,31.355642_118.457377,31.355642_118.458021,31.355668_118.458128,31.355652_118.458529,31.355545_118.458522,31.35519_118.458489,31.354495_118.458428,31.353043_118.458396,31.352266_118.45844,31.352021_118.458509,31.351792_118.458562,31.351679_118.458744,31.351407_118.458922,31.351191_118.458899,31.351167_118.458876,31.351155_118.458522,31.351361_118.457836,31.351729_118.456113,31.352671_118.454657,31.353444_118.453484,31.354093_118.45312,31.354284_118.452695,31.354524_118.452747,31.354946_118.45299,31.355147_118.45323,31.355344_118.454829,31.355615"
340222,马仁山路429号,芜湖市,B022900AF7,31.074063,118.204986,繁昌县人民医院(马仁山路),"118.203958,31.074152_118.204471,31.073605_118.204543,31.073612_118.204613,31.073605_118.204688,31.07357_118.204977,31.073368_118.205222,31.073205_118.205267,31.073256_118.205361,31.073203_118.205881,31.073713_118.205624,31.07392_118.205793,31.074113_118.205678,31.074289_118.20556,31.074453_118.20516,31.074907_118.205047,31.074829_118.204941,31.074907_118.204795,31.074721_118.204653,31.074799_118.203958,31.074152"
340202,九华中路93号,芜湖市,B022900J1R,31.351586,118.380693,仁和苑,"118.380665,31.350699_118.380927,31.350829_118.38073,31.35109_118.380708,31.351122_118.380708,31.351153_118.380719,31.351166_118.381469,31.351563_118.380896,31.352329_118.379938,31.351706_118.380665,31.350699"
340202,长江中路与广福路,芜湖市,B0229154J0,31.382011,118.364158,伊顿津桥,"118.36491,31.380541_118.364884,31.381792_118.364895,31.382419_118.365354,31.382431_118.365375,31.38335_118.363274,31.38331_118.363222,31.381906_118.363205,31.381341_118.363244,31.380606_118.363321,31.38055_118.36491,31.380541"
340202,黄山东路,芜湖市,B022914J71,31.33203,118.417747,伊顿公馆,"118.41592,31.333383_118.415897,31.332518_118.415838,31.331117_118.415824,31.329764_118.41583,31.329747_118.415838,31.329732_118.41585,31.329717_118.415864,31.3297_118.415877,31.329689_118.415903,31.329676_118.415928,31.329666_118.416119,31.329616_118.416145,31.329612_118.416174,31.32961_118.416192,31.32961_118.416219,31.329609_118.416774,31.329659_118.417166,31.329715_118.418402,31.33001_118.418413,31.330016_118.418419,31.330024_118.418423,31.330034_118.418423,31.330046_118.418311,31.33044_118.418311,31.330451_118.418317,31.330461_118.418326,31.330469_118.418338,31.330472_118.418813,31.330571_118.418824,31.330579_118.418836,31.33059_118.418841,31.330604_118.418844,31.330618_118.418845,31.331146_118.418903,31.332215_118.418908,31.332225_118.418915,31.332232_118.418927,31.332238_118.418942,31.33224_118.420595,31.332314_118.420618,31.332321_118.420634,31.332327_118.420646,31.332333_118.42066,31.332341_118.420673,31.332353_118.420682,31.332365_118.420689,31.332381_118.420693,31.332396_118.420696,31.332411_118.420665,31.3337_118.420658,31.333709_118.420643,31.333716_118.420631,31.333718_118.420606,31.33372_118.419066,31.333478_118.419041,31.333476_118.419011,31.333476_118.41899,31.333479_118.41897,31.333484_118.418954,31.333493_118.418566,31.333974_118.418543,31.333997_118.418516,31.334014_118.418486,31.334028_118.418464,31.334038_118.418424,31.33405_118.418196,31.334079_118.418128,31.33408_118.418082,31.334077_118.418038,31.334071_118.416797,31.333831_118.416765,31.333819_118.415967,31.333454_118.415954,31.333447_118.415946,31.333439_118.415932,31.333423_118.415925,31.333402_118.41592,31.333383"
340203,利民西路443号,芜湖市,B022914J45,31.311564,118.369609,蜂蜜商住楼,"118.369255,31.31164_118.369878,31.311699_118.369963,31.31164_118.369978,31.311493_118.36927,31.311425_118.369255,31.31164"
340203,九华南路西150米,芜湖市,B02291497L,31.271759,118.386111,伟业臻园,"118.38522,31.272217_118.386688,31.272415_118.387063,31.271105_118.386594,31.271062_118.386519,31.271365_118.385346,31.271202_118.38519,31.272194_118.38522,31.272217"
340202,国货路汉庭旁,芜湖市,B02290I6H2,31.326506,118.370177,和平大厦,"118.369691,31.326792_118.370737,31.326775_118.370757,31.326742_118.370756,31.326498_118.370788,31.326274_118.370764,31.326235_118.369651,31.326227_118.3696,31.326243_118.369594,31.326774_118.369691,31.326792"
340202,红光支路15号,芜湖市,B02290I7GU,31.334663,118.386703,伟星·左岸生活E区,"118.385783,31.335297_118.385843,31.334578_118.38588,31.334519_118.385977,31.334475_118.386776,31.334521_118.3868,31.334303_118.386921,31.334301_118.386948,31.334262_118.386958,31.333733_118.386797,31.333721_118.386787,31.333453_118.386805,31.333433_118.387235,31.333368_118.387288,31.333389_118.387328,31.333488_118.387304,31.334546_118.387277,31.335334_118.387227,31.335394_118.385837,31.335352_118.385783,31.335297"
340202,北京中路与红光支路交叉口东南150米,芜湖市,B022914OQF,31.334231,118.388794,伟星·左岸生活B区,"118.387404,31.335371_118.387495,31.333519_118.387586,31.3334_118.387699,31.333373_118.389083,31.333231_118.389528,31.333176_118.389745,31.333169_118.389942,31.333183_118.390038,31.333231_118.390065,31.333299_118.390011,31.335412_118.389968,31.335485_118.389914,31.335522_118.389508,31.335514_118.389349,31.33492_118.387985,31.334864_118.387975,31.335441_118.38748,31.335408_118.387404,31.335371"
340207,鸠江北路与神山路交口,芜湖市,B0FFFGVT14,31.345964,118.418648,伟星公园大道壹号,"118.419228,31.344561_118.419649,31.344529_118.420637,31.34452_118.420881,31.344693_118.420893,31.346004_118.420866,31.347177_118.420799,31.347227_118.420707,31.347249_118.416112,31.347275_118.416051,31.347251_118.416005,31.347215_118.415978,31.347146_118.415981,31.346881_118.41622,31.346889_118.416159,31.346785_118.416252,31.34674_118.416334,31.346676_118.41638,31.346589_118.416373,31.345943_118.416354,31.345226_118.416372,31.345132_118.416464,31.345033_118.416558,31.344942_118.41666,31.344879_118.416744,31.344867_118.417035,31.344851_118.417352,31.344862_118.417467,31.344869_118.417585,31.344823_118.417687,31.344742_118.417751,31.344654_118.417773,31.344551_118.419228,31.344561"
340207,赤铸山路与弋江路交汇处,芜湖市,B02291433R,31.358656,118.405147,伟星城(伟星支路),"118.402142,31.359775_118.401381,31.359762_118.400645,31.35978_118.400667,31.358916_118.400766,31.358922_118.400804,31.35834_118.403633,31.358368_118.403663,31.357526_118.406138,31.357527_118.407852,31.357586_118.409486,31.357622_118.40958,31.357737_118.409649,31.359772_118.409507,31.359789_118.409502,31.359989_118.408674,31.36_118.408684,31.360511_118.409571,31.360538_118.409616,31.360611_118.409623,31.361047_118.409593,31.362341_118.40956,31.362974_118.409523,31.365593_118.407716,31.365628_118.407745,31.36392_118.407745,31.362925_118.407742,31.361764_118.407748,31.360745_118.40775,31.360051_118.407756,31.359792_118.40568,31.359788_118.403596,31.359781_118.402142,31.359775"
340202,营盘山路,芜湖市,B02290I6BC,31.331785,118.388751,伟星·左岸生活A区,"118.390057,31.331584_118.3901,31.330819_118.390086,31.330736_118.389987,31.330606_118.389875,31.330521_118.389778,31.330503_118.387605,31.330512_118.387514,31.330555_118.387493,31.330626_118.387498,31.333089_118.387526,31.333135_118.387565,31.333171_118.387654,31.333199_118.389906,31.332927_118.389956,31.332909_118.390002,31.332888_118.390024,31.332857_118.390041,31.332814_118.390057,31.331584"
340202,西经四路2,芜湖市,B0FFF2WQJB,31.334308,118.391178,伟星·左岸生活C区,"118.390183,31.335346_118.390219,31.333188_118.390395,31.333014_118.391403,31.33288_118.391592,31.332964_118.392152,31.334117_118.392228,31.334379_118.392334,31.334886_118.392354,31.335353_118.392291,31.335435_118.392171,31.335503_118.391908,31.335514_118.390337,31.335427_118.390229,31.335406_118.390183,31.335346"
340202,西经四路4号,芜湖市,B02290I6BH,31.332137,118.390593,伟星·左岸生活D区,"118.390245,31.330997_118.390199,31.332722_118.390266,31.332829_118.390381,31.332871_118.391159,31.332781_118.391247,31.332739_118.391267,31.332665_118.390388,31.330991_118.390315,31.330964_118.390245,31.330997"
340202,红光支路67号,芜湖市,B022914J76,31.330055,118.386624,伟星·左岸生活F区,"118.386236,31.327802_118.387336,31.327825_118.387349,31.328844_118.387317,31.329628_118.387344,31.33092_118.387333,31.332189_118.385979,31.332311_118.385917,31.332072_118.386062,31.331901_118.386092,31.331793_118.386113,31.331314_118.386102,31.330936_118.386113,31.330702_118.385652,31.33065_118.385678,31.3304_118.385568,31.330393_118.385611,31.329627_118.385619,31.329495_118.385952,31.3295_118.386035,31.328844_118.386236,31.327802"
340207,鸠江北路与赤铸山中路交叉口,芜湖市,B022915B4R,31.35881,118.413491,伟星·幸福里,"118.415212,31.359914_118.411849,31.359946_118.411752,31.359841_118.411811,31.35767_118.411913,31.357624_118.415148,31.357757_118.415277,31.357802_118.415212,31.359914"
340202,北京西路与九华中路交叉口东南角,芜湖市,B0FFGAQ5ND,31.333496,118.380298,伟星时代金融中心,"118.380677,31.334132_118.380657,31.334142_118.380632,31.334144_118.380604,31.334139_118.379737,31.333706_118.37971,31.333691_118.379686,31.33367_118.379665,31.333646_118.379645,31.333615_118.379629,31.333583_118.379619,31.333546_118.37961,31.333513_118.379611,31.333477_118.379669,31.332939_118.379678,31.332927_118.379689,31.332914_118.379711,31.332908_118.379732,31.33291_118.380006,31.332942_118.380022,31.332948_118.380037,31.332962_118.380041,31.332972_118.380045,31.332987_118.380027,31.333129_118.380032,31.333148_118.380042,31.333161_118.380057,31.333167_118.380071,31.333172_118.380323,31.333233_118.38034,31.333235_118.38036,31.333231_118.380375,31.333223_118.380389,31.33321_118.380487,31.333033_118.38051,31.333013_118.380537,31.333001_118.38056,31.332996_118.380585,31.332996_118.380849,31.333133_118.380879,31.333158_118.380907,31.333186_118.380921,31.333216_118.380936,31.333253_118.380944,31.333286_118.380947,31.333315_118.380892,31.333753_118.380698,31.334116_118.380677,31.334132"
340207,九华北路与港湾东路交叉口,芜湖市,B022914PLS,31.419077,118.404273,伟星玲珑湾,"118.40441,31.421254_118.403824,31.420666_118.402827,31.419694_118.402575,31.419457_118.402495,31.419282_118.401944,31.418058_118.401559,31.417218_118.401557,31.417209_118.401557,31.417202_118.401563,31.417194_118.401569,31.417189_118.402641,31.416858_118.403053,31.416683_118.403215,31.417014_118.403915,31.416767_118.4043,31.417602_118.40497,31.417352_118.405224,31.417858_118.405231,31.417866_118.40524,31.41787_118.405255,31.417872_118.40527,31.41787_118.40533,31.417847_118.405338,31.417844_118.405349,31.417844_118.405362,31.417849_118.405376,31.417858_118.406099,31.41941_118.406099,31.419419_118.406095,31.419428_118.406089,31.419435_118.406077,31.419442_118.405951,31.419488_118.406427,31.420563_118.406431,31.420577_118.406431,31.420591_118.406429,31.420607_118.406422,31.420619_118.406298,31.420839_118.406289,31.420851_118.406277,31.420863_118.406262,31.420873_118.406247,31.420881_118.404703,31.421402_118.404682,31.421409_118.40466,31.421412_118.404639,31.421414_118.404622,31.421412_118.404601,31.421408_118.40458,31.4214_118.404511,31.421352_118.40441,31.421254"
340203,利民西路337号,芜湖市,B022915091,31.309277,118.369927,伟星金域华府,"118.369548,31.307069_118.369553,31.307041_118.369572,31.307028_118.369599,31.307023_118.369626,31.307023_118.370696,31.307081_118.370716,31.307086_118.370737,31.307097_118.370749,31.307116_118.370754,31.307135_118.370755,31.307501_118.370758,31.307525_118.370766,31.307547_118.370781,31.307572_118.370803,31.307599_118.371147,31.307926_118.371197,31.307999_118.371214,31.308012_118.371237,31.308024_118.371265,31.308029_118.371291,31.30803_118.372037,31.308061_118.372066,31.308064_118.372087,31.308072_118.372099,31.30809_118.372103,31.30812_118.372009,31.309775_118.371994,31.30981_118.371966,31.309838_118.371929,31.309862_118.37189,31.309878_118.369869,31.310361_118.369966,31.311357_118.369962,31.311377_118.369951,31.311395_118.36993,31.311406_118.369903,31.311413_118.369286,31.311393_118.369267,31.311396_118.369253,31.3114_118.36924,31.311412_118.369235,31.311431_118.369224,31.311481_118.369217,31.311497_118.369202,31.311507_118.369183,31.311513_118.36916,31.311515_118.368252,31.311454_118.36823,31.311448_118.368211,31.311438_118.368197,31.311425_118.368193,31.311406_118.368191,31.311385_118.368208,31.311051_118.368244,31.309896_118.367879,31.308562_118.36788,31.30854_118.367892,31.308518_118.367905,31.308507_118.36793,31.308499_118.369348,31.308495_118.369378,31.308492_118.3694,31.308484_118.369418,31.308474_118.369426,31.308453_118.369548,31.307069"
340208,龙湖大道与浮山路交汇处,芜湖市,B0229154QR,31.227706,118.273682,伟星·金域国际,"118.272535,31.22636_118.272617,31.226315_118.272616,31.225942_118.273814,31.225937_118.273824,31.226516_118.274962,31.226552_118.274939,31.229074_118.274778,31.229216_118.272518,31.229212_118.272535,31.22636"
340203,三潭路与花津中路交叉口西北150米,芜湖市,B022914PJ0,31.320228,118.373029,伟星金域蓝湾,"118.367785,31.32246_118.367828,31.322503_118.367855,31.322519_118.367893,31.322528_118.367949,31.322533_118.368064,31.322501_118.368471,31.322343_118.368485,31.322335_118.368491,31.322325_118.368495,31.322304_118.368495,31.322281_118.3685,31.322267_118.368509,31.322254_118.368526,31.322243_118.36855,31.322234_118.369011,31.322066_118.36903,31.322061_118.369045,31.32206_118.369055,31.322068_118.36934,31.322785_118.36936,31.322805_118.369397,31.322824_118.369428,31.322825_118.369486,31.322813_118.369683,31.322761_118.370946,31.321927_118.371311,31.32167_118.373143,31.320719_118.374004,31.320309_118.375517,31.319624_118.37634,31.319232_118.377518,31.318694_118.378454,31.318298_118.378463,31.318286_118.378463,31.318269_118.378463,31.318249_118.378452,31.318218_118.37825,31.317835_118.378232,31.317821_118.378214,31.31782_118.378173,31.31782_118.378027,31.317872_118.377736,31.317993_118.377286,31.318175_118.37709,31.318264_118.37676,31.318361_118.3761,31.318538_118.375363,31.318797_118.374577,31.319055_118.374548,31.319062_118.374527,31.319065_118.374503,31.319065_118.374487,31.319063_118.374473,31.319054_118.374123,31.318636_118.373323,31.317768_118.373307,31.317761_118.373288,31.31776_118.37327,31.317762_118.373159,31.317808_118.372884,31.3178_118.372373,31.317783_118.372352,31.317779_118.372337,31.317769_118.372329,31.317754_118.372262,31.317597_118.372232,31.31758_118.372203,31.317572_118.37197,31.317565_118.371932,31.317573_118.371908,31.317588_118.371889,31.317612_118.371885,31.317636_118.371842,31.319389_118.371823,31.319419_118.371805,31.319428_118.371767,31.319433_118.369804,31.319433_118.369774,31.319419_118.369761,31.319399_118.369761,31.319366_118.36979,31.318299_118.369777,31.318251_118.369755,31.318228_118.369723,31.3182_118.36968,31.318177_118.369616,31.318159_118.369224,31.318131_118.366987,31.318047_118.366947,31.318063_118.366912,31.318079_118.366883,31.318111_118.366867,31.318157_118.366848,31.31826_118.366944,31.318636_118.367199,31.319751_118.367425,31.320773_118.367634,31.321733_118.367785,31.32246"
340207,开发区银湖北路和武夷山路交汇处东南侧,芜湖市,B0FFFQ0652,31.398702,118.375857,伟星银湖时代,"118.377075,31.399963_118.375836,31.400036_118.375726,31.398896_118.375546,31.398704_118.374071,31.398782_118.373983,31.397976_118.376874,31.397733_118.377075,31.399963"
340203,中山南路与红花山路交叉口,芜湖市,B022914447,31.304517,118.363662,伟星长江之歌,"108.937099,34.132967_108.937174,34.133171_108.937068,34.133195_108.936987,34.132992_108.937099,34.132967"
340203,中山南路西200米,芜湖市,B0FFJM7FMG,31.304525,118.364028,长江之歌二期,"118.362521,31.303149_118.362183,31.302487_118.364649,31.301827_118.366402,31.306529_118.366381,31.306597_118.366308,31.306614_118.364042,31.306538_118.362796,31.306464_118.362681,31.306436_118.362604,31.306384_118.362544,31.306322_118.361892,31.304154_118.362818,31.303874_118.362521,31.303149"
340202,棠梅路与经三路交叉口西200米,芜湖市,B0FFJUOGI7,31.327227,118.411925,绿地·镜湖世纪城佩森雅苑,"118.410955,31.327384_118.411062,31.32727_118.411142,31.327218_118.411264,31.32719_118.411537,31.326758_118.412739,31.327298_118.412676,31.327479_118.412494,31.327741_118.412263,31.328011_118.412011,31.328242_118.41174,31.328593_118.409712,31.328336_118.40994,31.327958_118.410447,31.327222_118.410955,31.327384"
340202,银湖中路44附近,芜湖市,B0FFGSJB9X,31.355954,118.379291,保兴港,"118.376909,31.355193_118.376997,31.356134_118.376989,31.35663_118.378674,31.356772_118.380208,31.356704_118.380648,31.356653_118.38057,31.357077_118.38097,31.357214_118.381278,31.356696_118.381651,31.356195_118.382246,31.35565_118.382219,31.355526_118.382085,31.355448_118.381919,31.355393_118.381334,31.355366_118.381187,31.355384_118.380964,31.355435_118.380463,31.355476_118.380103,31.355359_118.379816,31.35524_118.37913,31.35508_118.378802,31.355098_118.378448,31.355112_118.377614,31.355004_118.377312,31.354938_118.376952,31.354909_118.376909,31.355193"
340202,银湖中路37号,芜湖市,B0FFF04TD5,31.353237,118.372893,保兴湾,"118.37176,31.352597_118.371771,31.352359_118.372075,31.352361_118.372746,31.352374_118.372708,31.353044_118.373301,31.353069_118.373344,31.352769_118.373821,31.352836_118.373738,31.353266_118.373678,31.353498_118.373647,31.353942_118.372349,31.353917_118.372292,31.352804_118.37226,31.352616_118.37176,31.352597"
340208,049县道附近,芜湖市,B022914OL4,31.236276,118.226454,保定新城,"118.226311,31.234625_118.22639,31.234842_118.227543,31.234406_118.227691,31.234314_118.227871,31.234161_118.22804,31.234053_118.228944,31.235115_118.22919,31.235374_118.228716,31.235626_118.229299,31.23628_118.228388,31.236931_118.229174,31.237719_118.22858,31.238101_118.228416,31.238117_118.228233,31.238096_118.227036,31.23811_118.2251,31.238431_118.224907,31.238376_118.224665,31.238234_118.224344,31.237826_118.224107,31.237326_118.223989,31.236317_118.223953,31.235278_118.223945,31.235048_118.22377,31.234592_118.224261,31.234512_118.224331,31.234734_118.225256,31.234642_118.225149,31.234406_118.225581,31.234253_118.2255,31.234023_118.226166,31.23384_118.226246,31.234145_118.226311,31.234625"
340207,武夷山路北,芜湖市,B0FFHK5ZRL,31.400886,118.392894,信德半岛北区,"118.390707,31.399764_118.390845,31.399737_118.391868,31.399715_118.39187,31.399819_118.392441,31.399806_118.393202,31.399753_118.395209,31.39963_118.395271,31.399638_118.395003,31.40019_118.394364,31.401458_118.393802,31.40234_118.391632,31.402347_118.390707,31.399764"
340207,,芜湖市,B0FFG8YG74,31.398812,118.390957,信德半岛南区,"118.389721,31.399431_118.389711,31.399272_118.38969,31.399072_118.38976,31.398951_118.389872,31.398799_118.390066,31.398529_118.390237,31.398319_118.390586,31.398039_118.390741,31.397925_118.390929,31.397879_118.391122,31.397879_118.391222,31.397886_118.39124,31.39803_118.391299,31.398117_118.391385,31.398149_118.39168,31.398158_118.391782,31.398172_118.391841,31.398245_118.391895,31.398479_118.391975,31.398955_118.392007,31.399088_118.392101,31.399113_118.392281,31.399054_118.392361,31.399047_118.392394,31.399111_118.392431,31.399285_118.392412,31.399351_118.390267,31.399468_118.389722,31.399487_118.389721,31.399431"
340207,经济开发区凤鸣湖南路,芜湖市,B02291433T,31.404369,118.385426,信德华府,"118.383642,31.405184_118.383473,31.403882_118.38334,31.402969_118.383345,31.402948_118.383357,31.402934_118.383378,31.402928_118.383402,31.402924_118.387062,31.403025_118.387081,31.403031_118.387095,31.403042_118.387102,31.40306_118.387107,31.403077_118.386982,31.40472_118.386882,31.405546_118.38685,31.406416_118.386427,31.406808_118.386397,31.406831_118.386369,31.406845_118.386338,31.406855_118.386301,31.406862_118.385724,31.406878_118.383986,31.406938_118.383964,31.406936_118.383944,31.406929_118.38393,31.406917_118.383919,31.406895_118.383745,31.405538_118.383642,31.405184"
340207,赤铸山路,芜湖市,B0FFIUI6F7,31.352667,118.485626,信德悦城,"118.484055,31.354474_118.488002,31.353679_118.487173,31.35083_118.483383,31.351654_118.483308,31.351957_118.484055,31.354474"
340207,武夷山路,芜湖市,B022914JRT,31.398906,118.385528,信德翡翠湾,"118.383959,31.399196_118.383634,31.399222_118.383598,31.399128_118.384598,31.397983_118.385666,31.398041_118.38566,31.398158_118.386948,31.398236_118.387026,31.398311_118.386964,31.398537_118.386918,31.398828_118.387482,31.399016_118.387474,31.399295_118.387407,31.399423_118.387273,31.3995_118.387139,31.399545_118.386986,31.399565_118.38397,31.399673_118.383959,31.399196"
340202,天门山东路14号,芜湖市,B0FFFAFUTO,31.366777,118.379724,信达蓝湖郡,"118.37965,31.364376_118.379686,31.364076_118.380469,31.364125_118.38058,31.364196_118.3806,31.364313_118.380557,31.36459_118.380517,31.364915_118.380577,31.365149_118.380638,31.365355_118.380627,31.365524_118.380598,31.3659_118.380863,31.366337_118.381338,31.367201_118.381239,31.36759_118.381233,31.367681_118.381341,31.367902_118.380851,31.368308_118.380751,31.368396_118.380727,31.369079_118.379749,31.369053_118.379689,31.369015_118.378482,31.368963_118.378377,31.368881_118.378677,31.364347_118.37965,31.364376"
340202,吉和路1号,芜湖市,B0FFH02BHJ,31.338036,118.363089,信达·外滩府,"118.361502,31.338409_118.361631,31.338638_118.362154,31.338758_118.362499,31.338774_118.363654,31.338659_118.363785,31.338554_118.364718,31.33848_118.364782,31.338359_118.364675,31.338036_118.364552,31.337832_118.364168,31.337456_118.363739,31.337092_118.363133,31.337319_118.362811,31.337388_118.362089,31.337504_118.361837,31.337555_118.361684,31.337665_118.361502,31.338409"
340202,滨江公共服务中心滨江公共服务中心健康二马路,芜湖市,B0FFIOU4ZY,31.340242,118.358787,健康二马路集贸市场,"118.358372,31.340141_118.359231,31.340229_118.359214,31.34034_118.35835,31.340259_118.358372,31.340141"
340202,赭山西路16号,芜湖市,B02290I26Y,31.35101,118.362677,健美小区,"118.362419,31.351439_118.362424,31.351288_118.362075,31.351273_118.362067,31.351053_118.361869,31.351031_118.361879,31.35082_118.362098,31.350628_118.363333,31.350686_118.363346,31.351061_118.363481,31.3511_118.363489,31.351295_118.362954,31.351296_118.362943,31.351471_118.362419,31.351439"
340221,保沙路与水阳江路交叉口南150米,芜湖市,B0FFG4FTK2,31.121219,118.580079,静安·阳光城,"118.576318,31.122468_118.583281,31.123414_118.583458,31.123295_118.584187,31.120278_118.584155,31.120117_118.584021,31.120016_118.576752,31.119024_118.576682,31.11907_118.576591,31.119171_118.57606,31.122156_118.576318,31.122468"
340207,河清路以东,芜湖市,B022914444,31.353754,118.438932,兆通·大观花园,"118.436796,31.355431_118.436866,31.355438_118.441377,31.354414_118.441418,31.352518_118.43678,31.352566_118.436796,31.355431"
340207,齐落山路南100米,芜湖市,B0FFFVD28Z,31.392865,118.370211,光华星城,"118.367874,31.394313_118.367655,31.391694_118.369401,31.391607_118.371083,31.391499_118.372505,31.391409_118.372636,31.392572_118.372782,31.39371_118.37282,31.394011_118.367874,31.394313"
340221,十连路西200米,芜湖市,B0FFFSH3B5,31.136191,118.574911,八达·政和苑,"118.573697,31.135991_118.573825,31.135339_118.575994,31.135591_118.575861,31.137104_118.5739,31.136806_118.573895,31.136589_118.574158,31.136041_118.573697,31.135991"
340202,弋矶山公共服务中心长江路59号,芜湖市,B0FFGMKVJG,31.353465,118.363934,公交小区,"118.363254,31.353656_118.363256,31.353493_118.363669,31.353503_118.363671,31.353399_118.363714,31.353396_118.36371,31.353265_118.364349,31.353273_118.364377,31.353284_118.364365,31.353634_118.364343,31.353655_118.363254,31.353656"
340221,湾沚镇东湖公园大门口对面(东湖路和湾新路之间),芜湖市,B02290I8ZB,31.149681,118.584196,公园城邦,"118.586488,31.148669_118.586344,31.148587_118.58563,31.148661_118.585137,31.148629_118.584896,31.148599_118.584456,31.148484_118.583788,31.14823_118.582785,31.147819_118.582651,31.147838_118.581528,31.149773_118.581555,31.149907_118.582789,31.150487_118.585067,31.151743_118.585183,31.151721_118.586577,31.14988_118.58659,31.149801_118.586488,31.148669"
350102,兴园路201号,福州市,B024F063BG,26.073501,119.286332,兴园新村,"119.286097,26.07306_119.285935,26.073817_119.286676,26.073901_119.286715,26.073528_119.286585,26.073514_119.286611,26.073104_119.286097,26.07306"
340202,二街167号,芜湖市,B022900PW7,31.324219,118.374631,兴安花苑小区,"118.373694,31.32475_118.373559,31.324191_118.373562,31.324145_118.373598,31.324123_118.374445,31.323886_118.375135,31.323701_118.375473,31.32364_118.375495,31.323663_118.375668,31.324301_118.375655,31.324343_118.375412,31.324442_118.37374,31.324763_118.373694,31.32475"
340202,吉和北路25号,芜湖市,B022914J4D,31.33643,118.361384,兴芜小区,"118.36085,31.336804_118.360923,31.336172_118.361046,31.33608_118.36121,31.336034_118.361652,31.33605_118.36188,31.336069_118.361886,31.33636_118.36184,31.336639_118.361816,31.336834_118.361161,31.336751_118.361145,31.336832_118.36085,31.336804"
340203,白马街道漳河路浅湾小区,芜湖市,B0FFFRXNG3,31.237642,118.358344,浅湾小区-农贸市场,"118.358101,31.237919_118.357792,31.237449_118.357795,31.237421_118.358243,31.237196_118.358567,31.237687_118.358101,31.237919"
340222,桃园新村(马钢桃冲矿小区东50米),芜湖市,B02290HVNY,31.109910,118.084391,桃冲贸易市场,"118.084557,31.109948_118.084567,31.109764_118.084129,31.109757_118.084127,31.109947_118.084557,31.109948"
340207,长江北路,芜湖市,B0FFG0FQM1,31.44559,118.361034,冶炼新村,"118.360562,31.445227_118.360748,31.445175_118.36087,31.445146_118.360915,31.445173_118.361033,31.44511_118.361232,31.445076_118.361278,31.445106_118.361486,31.445812_118.361458,31.445902_118.361401,31.445988_118.360798,31.446115_118.360562,31.445227"
340207,九华北路336号,芜湖市,B02290I4OF,31.408718,118.399568,伟星·凤凰城,"118.39997,31.415615_118.400049,31.415599_118.403658,31.414465_118.403713,31.414417_118.403758,31.414354_118.403799,31.414248_118.403796,31.414195_118.402032,31.408034_118.400758,31.405045_118.400747,31.405029_118.400733,31.405019_118.400711,31.405019_118.400694,31.405022_118.399702,31.405311_118.399679,31.405314_118.399661,31.405314_118.399643,31.405308_118.399627,31.405292_118.399208,31.404251_118.399207,31.404233_118.399211,31.404218_118.399222,31.404207_118.399243,31.404201_118.4002,31.403899_118.400219,31.403886_118.400226,31.403875_118.400225,31.403859_118.40022,31.403845_118.400096,31.403585_118.400022,31.403423_118.399863,31.403128_118.399454,31.40241_118.399007,31.401721_118.398528,31.401039_118.398508,31.401016_118.398489,31.401004_118.398447,31.400999_118.398419,31.401002_118.398386,31.401011_118.398344,31.401025_118.397941,31.401249_118.397481,31.401553_118.397049,31.401911_118.396711,31.40226_118.396563,31.402432_118.396432,31.402613_118.396297,31.40282_118.396195,31.403023_118.396009,31.403443_118.395938,31.403644_118.395881,31.404004_118.395859,31.404367_118.395832,31.405097_118.395838,31.40527_118.395858,31.405383_118.395898,31.405497_118.39607,31.406011_118.396259,31.406513_118.397093,31.408792_118.397198,31.409129_118.397234,31.409286_118.397251,31.409412_118.397294,31.409811_118.397336,31.410126_118.397356,31.410195_118.397384,31.410273_118.39742,31.41035_118.397471,31.410456_118.397705,31.41084_118.398043,31.411508_118.398317,31.412194_118.398424,31.412593_118.398543,31.412982_118.398682,31.413354_118.39883,31.413724_118.399088,31.414286_118.39918,31.414451_118.399559,31.415039_118.399812,31.415546_118.399835,31.415578_118.399862,31.415596_118.399882,31.415608_118.39991,31.415618_118.39997,31.415615"
340203,利民西路249号,芜湖市,B022913QLK,31.310954,118.37105,凤凰新村(利民路),"118.371969,31.311822_118.372028,31.309949_118.371731,31.309992_118.370808,31.310229_118.369928,31.310392_118.36997,31.310951_118.370041,31.311714_118.371969,31.311822"
340202,银湖南路88号,芜湖市,B02290I26H,31.337843,118.366882,侨鸿凤凰花园,"118.365734,31.338111_118.366241,31.337555_118.366461,31.337493_118.366973,31.337344_118.366992,31.337255_118.367027,31.337142_118.36715,31.337083_118.367424,31.337016_118.367569,31.337005_118.368078,31.337443_118.367687,31.337804_118.366598,31.338744_118.366539,31.338746_118.366461,31.338746_118.365734,31.338111"
340225,319省道北100米,芜湖市,B0FFG4HBTO,31.194809,117.777756,凤凰花园(新安华庭西),"117.776757,31.193757_117.777812,31.194144_117.778447,31.194387_117.778577,31.194775_117.77875,31.195185_117.778861,31.195513_117.778051,31.195709_117.777642,31.195794_117.777484,31.195415_117.777377,31.195373_117.777337,31.195329_117.777213,31.195157_117.777015,31.194753_117.776775,31.194276_117.776608,31.193924_117.776619,31.193877_117.776628,31.193852_117.776706,31.193773_117.776757,31.193757"
340225,319省道北100米,芜湖市,B0FFG4HIT3,31.184414,117.606397,中基·凤凰花园,"117.605557,31.184007_117.606214,31.183954_117.606249,31.184239_117.607276,31.184136_117.607413,31.1847_117.605621,31.184762_117.605557,31.184007"
340207,经济开发区,芜湖市,B02290I3VD,31.415792,118.389703,凤鸣湖幼儿园,"118.389713,31.415824_118.389747,31.415655_118.389528,31.415601_118.389435,31.415777_118.389713,31.415824"
340207,凤鸣湖南路5号,芜湖市,B02290I83M,31.444588,118.38046,天门工业园(凤鸣湖北路),"118.381656,31.443364_118.377713,31.443812_118.377793,31.444224_118.378051,31.444398_118.378426,31.444366_118.378936,31.444517_118.379504,31.444352_118.379585,31.444727_118.379778,31.445464_118.380025,31.445496_118.3804,31.445487_118.380551,31.445771_118.38062,31.446251_118.381784,31.446114_118.381913,31.446087_118.38195,31.445605_118.381954,31.444971_118.381876,31.444028_118.381791,31.443394_118.381656,31.443364"
340207,凤鸣湖北路,芜湖市,B022914OL1,31.478081,118.385977,东贝芜湖工业园,"118.384182,31.477127_118.388522,31.476738_118.388651,31.477749_118.386049,31.478001_118.386264,31.479872_118.38488,31.480014_118.384649,31.479872_118.384182,31.477127"
340202,黄山东路1号,芜湖市,B0FFFZJ4SP,31.330558,118.41396,绿地·镜湖世纪城凯旋豪庭南区,"118.412488,31.331565_118.412705,31.329317_118.412721,31.329221_118.412788,31.329148_118.412842,31.32912_118.415103,31.329354_118.415328,31.329601_118.415379,31.331684_118.415183,31.331904_118.412716,31.331764_118.412488,31.331565"
340203,"利民东路,苏果超市对面",芜湖市,B02290I249,31.312279,118.382101,利民一村小区,"118.381571,31.312537_118.383617,31.312657_118.383754,31.312623_118.383886,31.312516_118.383932,31.312422_118.383959,31.312167_118.383842,31.312159_118.383838,31.312101_118.382942,31.312028_118.382065,31.311971_118.382034,31.312017_118.380367,31.311894_118.380294,31.311985_118.380313,31.312094_118.380304,31.312235_118.380204,31.312235_118.380185,31.312428_118.381571,31.312537"
340203,"利民西路226号,弋江区政府",芜湖市,B02290I24Q,31.312671,118.373327,利民三村小区,"118.372402,31.313041_118.372436,31.312384_118.372206,31.312369_118.372222,31.312126_118.372501,31.312154_118.372784,31.312176_118.37326,31.312207_118.373847,31.312264_118.374271,31.312294_118.374287,31.312825_118.374343,31.3131_118.374427,31.313279_118.373665,31.313256_118.373622,31.312738_118.372898,31.31274_118.372892,31.313265_118.372396,31.313252_118.372402,31.313041"
340203,利民中路48号,芜湖市,B0FFF2J560,31.313289,118.380136,利民二村,"118.380082,31.313951_118.379455,31.314023_118.379453,31.313746_118.379555,31.313741_118.379572,31.313535_118.379108,31.313523_118.379155,31.313024_118.379359,31.313013_118.379372,31.312667_118.380505,31.31276_118.38136,31.312827_118.381329,31.313194_118.380807,31.313175_118.380826,31.31387_118.380082,31.313951"
340202,银湖中路32号,芜湖市,B022900T13,31.358031,118.375788,利达新村,"118.376522,31.358648_118.37655,31.358188_118.376706,31.358194_118.376711,31.357716_118.376702,31.357565_118.376604,31.357447_118.375417,31.357397_118.375396,31.357566_118.374926,31.357548_118.374843,31.35859_118.376522,31.358648"
340202,中山北路14号近工商银行,芜湖市,B022913RCH,31.342419,118.367072,劳动新村,"118.36621,31.343402_118.366835,31.343393_118.366889,31.343363_118.366953,31.343258_118.367216,31.34321_118.367634,31.343315_118.367656,31.343306_118.367672,31.343287_118.367751,31.343073_118.367809,31.342924_118.367842,31.342848_118.367901,31.342685_118.367909,31.342623_118.367909,31.342583_118.367902,31.342565_118.36787,31.342432_118.367826,31.342246_118.367552,31.342055_118.36754,31.342028_118.367539,31.342003_118.367546,31.341978_118.367566,31.341944_118.367982,31.341464_118.367984,31.341447_118.367972,31.34143_118.367665,31.341143_118.36762,31.3411_118.367586,31.341093_118.367552,31.3411_118.366973,31.341599_118.366615,31.341886_118.366412,31.342024_118.366239,31.342122_118.36621,31.342139_118.366198,31.342173_118.3662,31.342202_118.366204,31.342263_118.366189,31.342956_118.366181,31.343383_118.36621,31.343402"
340202,天门山东路35号,芜湖市,B0FFG0D5VX,31.368603,118.382517,勘探新村,"118.38086,31.369172_118.380924,31.36866_118.381256,31.368682_118.381278,31.368477_118.381441,31.368343_118.38152,31.368336_118.381677,31.368345_118.381752,31.368009_118.381859,31.36796_118.382349,31.367988_118.382337,31.368261_118.38303,31.368287_118.383049,31.367905_118.383181,31.367912_118.383183,31.367821_118.383899,31.367834_118.384036,31.368196_118.384084,31.368402_118.384064,31.368552_118.383367,31.368521_118.383361,31.368814_118.383616,31.368834_118.383625,31.369212_118.383122,31.369189_118.383133,31.36905_118.382878,31.369039_118.382869,31.369199_118.382227,31.369192_118.382235,31.369079_118.382038,31.369068_118.382029,31.36923_118.38086,31.369172"
340202,北京西路19-1号,芜湖市,B02290HXP1,31.334155,118.365454,北京路客运站,"118.365182,31.33453_118.365011,31.334303_118.36525,31.334031_118.365457,31.333767_118.365699,31.333855_118.36594,31.334121_118.365238,31.334544_118.365182,31.33453"
340203,弋江南路200号,芜湖市,B022913RTA,31.291917,118.403782,北吉园小区,"118.403657,31.293002_118.405535,31.293042_118.405478,31.292356_118.405063,31.292198_118.404894,31.29202_118.404803,31.291877_118.40474,31.291661_118.404227,31.291645_118.403696,31.291651_118.403683,31.291668_118.403672,31.291687_118.403657,31.293002"
340225,金塔西路54号,芜湖市,B02350140F,31.311105,117.913822,北圃山庄,"117.91413,31.312142_117.914466,31.312136_117.914561,31.312259_117.914728,31.312322_117.914772,31.312398_117.914785,31.312484_117.914777,31.312575_117.914702,31.312633_117.914331,31.312638_117.914332,31.312388_117.914145,31.3124_117.913213,31.312449_117.913181,31.311969_117.912455,31.312008_117.912503,31.31093_117.91254,31.310184_117.91298,31.310176_117.912963,31.309903_117.915117,31.309846_117.915133,31.31023_117.915174,31.310241_117.915063,31.310604_117.914796,31.310869_117.914727,31.311105_117.914743,31.311226_117.915028,31.311227_117.915034,31.311476_117.915235,31.31147_117.915216,31.311638_117.915156,31.311968_117.914718,31.311985_117.914285,31.31202_117.914123,31.312029_117.91413,31.312142"
340207,开发区芜湖市经济技术开发区越秀路16号,芜湖市,B02290I281,31.409216,118.378022,北城水岸,"118.377204,31.409366_118.377309,31.409367_118.377144,31.407533_118.378693,31.407452_118.378719,31.408202_118.378777,31.408965_118.378807,31.409318_118.378869,31.410091_118.378945,31.410846_118.377323,31.410935_118.377204,31.409366"
340202,"赭山西路4号,弋矶山医院旁边",芜湖市,B022913SBD,31.350878,118.359156,医苑小区,"118.359399,31.351275_118.359422,31.351134_118.359715,31.351145_118.359783,31.350587_118.358592,31.350526_118.358572,31.350938_118.358629,31.351038_118.358724,31.35122_118.359399,31.351275"
340207,九华北路,芜湖市,B022913QLG,31.371562,118.390688,十里小区,"118.389566,31.374374_118.388987,31.373339_118.389633,31.373027_118.389129,31.372054_118.389781,31.371761_118.389608,31.37147_118.390075,31.371279_118.390132,31.371133_118.390744,31.370875_118.39072,31.37071_118.39113,31.370547_118.391579,31.370674_118.391624,31.370738_118.392294,31.370452_118.392388,31.370615_118.39216,31.370714_118.392303,31.370969_118.391803,31.371198_118.392114,31.371733_118.392294,31.372072_118.391013,31.372677_118.390726,31.372207_118.39017,31.372469_118.390631,31.373208_118.391002,31.373059_118.391122,31.373254_118.391291,31.373178_118.391449,31.373446_118.39148,31.37381_118.391044,31.373984_118.390926,31.373808_118.389612,31.374348_118.389566,31.374374"
340202,北京中路16号,芜湖市,B02290I6ER,31.336599,118.38597,华亭·阳光绿洲,"118.385289,31.337201_118.385342,31.337557_118.386646,31.337473_118.386582,31.336819_118.386679,31.336262_118.386656,31.335712_118.38547,31.335658_118.385344,31.335764_118.385289,31.337201"
340202,营盘山路华亭阳光绿洲1号,芜湖市,B022914FHO,31.336292,118.384495,华亿广场(北京东路),"118.383826,31.336862_118.383416,31.336251_118.383759,31.336251_118.383786,31.335658_118.385271,31.335664_118.38521,31.337015_118.384357,31.336996_118.384345,31.336629_118.383826,31.336862"
340203,长江南路与利民路交汇处西南侧,芜湖市,B0FFHFFLGF,31.308487,118.365297,华仑港湾,"118.364161,31.311067_118.364199,31.311116_118.364235,31.311155_118.364283,31.311169_118.364327,31.311178_118.364818,31.311211_118.365591,31.311256_118.367405,31.311429_118.367448,31.311428_118.367502,31.311407_118.367554,31.311361_118.367627,31.311226_118.36766,31.31105_118.367806,31.310401_118.367817,31.310135_118.367745,31.309832_118.367637,31.309329_118.367424,31.308762_118.366987,31.307539_118.366776,31.307055_118.366727,31.306981_118.366649,31.306903_118.366547,31.306839_118.366465,31.306822_118.366327,31.306817_118.365626,31.306777_118.364892,31.306746_118.364038,31.306696_118.363432,31.306674_118.362964,31.30665_118.362911,31.306657_118.362865,31.306674_118.36281,31.306721_118.362798,31.306769_118.362813,31.306848_118.36288,31.307043_118.363116,31.307837_118.363271,31.308417_118.36334,31.308594_118.363372,31.30865_118.363518,31.308794_118.363542,31.308829_118.363676,31.30926_118.363688,31.309321_118.363679,31.309372_118.363635,31.30955_118.363642,31.309581_118.363668,31.309637_118.363883,31.310187_118.364161,31.311067"
340202,长江中路与银湖南路交汇处,芜湖市,B022914ZWX,31.340248,118.364574,华强广场(长江中路),"118.361934,31.338828_118.361903,31.339302_118.361689,31.33949_118.361655,31.339589_118.361482,31.339751_118.361305,31.340138_118.361692,31.340246_118.362011,31.340579_118.362109,31.340675_118.362703,31.34074_118.363848,31.34075_118.36392,31.340754_118.363953,31.340737_118.36393,31.340647_118.363908,31.340015_118.363914,31.338922_118.363821,31.338922_118.363805,31.33872_118.363106,31.338766_118.362531,31.338816_118.362437,31.338844_118.362158,31.33887_118.361934,31.338828"
340202,公安街与新横街交叉口西100米,芜湖市,B022914J6W,31.326531,118.363732,华盛小区,"118.363087,31.327073_118.363072,31.327215_118.363926,31.327267_118.363979,31.327148_118.36389,31.327104_118.364162,31.326074_118.364288,31.325622_118.363984,31.325529_118.363087,31.327073"
340202,赭麓公共服务中心赭山中路10号,芜湖市,B022900NQ9,31.34605,118.385549,华联新村,"118.385823,31.34687_118.386569,31.345589_118.386024,31.345397_118.386106,31.345236_118.38611,31.345152_118.385857,31.345074_118.3854,31.345566_118.385108,31.346015_118.385091,31.346059_118.38469,31.345896_118.384249,31.346235_118.384208,31.346301_118.385823,31.34687"
340222,华阳小区(321省道北),芜湖市,B0FFGAA0I6,31.091619,118.173545,华阳小区,"118.17195,31.095573_118.171837,31.095527_118.171215,31.095139_118.170949,31.094678_118.171006,31.094202_118.171261,31.093807_118.171403,31.093401_118.171674,31.092583_118.17192,31.092199_118.171994,31.092146_118.172116,31.092112_118.172387,31.092068_118.172768,31.091885_118.172942,31.091533_118.172977,31.091331_118.173145,31.090871_118.173221,31.090689_118.173261,31.090484_118.172237,31.09005_118.172244,31.089927_118.171896,31.089741_118.172735,31.088204_118.176227,31.090109_118.176697,31.090538_118.175363,31.092021_118.175252,31.092145_118.17463,31.092956_118.174482,31.092999_118.173916,31.092928_118.173855,31.09296_118.173546,31.09345_118.173425,31.093479_118.172589,31.094437_118.172546,31.094612_118.17242,31.094929_118.172049,31.09559_118.17195,31.095573"
340222,华阳中路,芜湖市,B0FFHGQ74D,31.095851,118.195146,繁阳名郡,"118.19353,31.095865_118.196475,31.096826_118.196561,31.096765_118.196585,31.095886_118.196471,31.095764_118.195679,31.095421_118.19504,31.09523_118.193904,31.094928_118.19353,31.095865"
340222,繁阳镇新城华府小区内,芜湖市,B0FFIUP704,31.095418,118.203025,大风车幼儿园,"118.202776,31.095631_118.202699,31.095406_118.202622,31.09518_118.20324,31.095016_118.203396,31.095457_118.203378,31.095486_118.202776,31.095631"
340203,三潭路175号,芜湖市,B02290I76I,31.317823,118.377388,南关公寓,"118.377218,31.318032_118.377096,31.317792_118.377556,31.317608_118.377677,31.317863_118.377218,31.318032"
340202,中山北路82号,芜湖市,B022914OO1,31.339586,118.369378,南台小区,"118.368972,31.339601_118.369422,31.339835_118.369591,31.339877_118.369785,31.339537_118.369664,31.339465_118.369643,31.339498_118.369161,31.339282_118.368972,31.339601"
340225,高沟镇学府小区东南方向200米,芜湖市,B023502F0W,31.116328,117.934647,红旗新村,"117.935551,31.117519_117.935353,31.117597_117.934867,31.116933_117.935594,31.11645_117.934241,31.11483_117.933574,31.115488_117.934707,31.116744_117.934165,31.117064_117.934986,31.117958_117.93563,31.117653_117.935551,31.117519"
340203,利民中路201号,芜湖市,B02290HV5G,31.30995,118.391026,南瑞新城沐春园,"118.389298,31.311017_118.389364,31.31195_118.389567,31.31206_118.390899,31.312044_118.392837,31.312032_118.393089,31.311999_118.393144,31.311945_118.393159,31.311737_118.393154,31.310016_118.393105,31.309976_118.392846,31.309908_118.392448,31.309748_118.392069,31.30949_118.391872,31.3092_118.391763,31.308732_118.391772,31.307108_118.389987,31.307123_118.389926,31.307171_118.389502,31.308946_118.389363,31.309781_118.389292,31.310599_118.389298,31.311017"
340203,利民中路379号,芜湖市,B02290I9W1,31.309216,118.398903,瑞东园,"118.397193,31.307581_118.397115,31.307627_118.397062,31.307705_118.396976,31.309374_118.39796,31.309415_118.397953,31.311213_118.398576,31.311239_118.398542,31.312037_118.399007,31.312032_118.399055,31.311815_118.399098,31.311737_118.399198,31.31169_118.400028,31.311692_118.400106,31.310995_118.400196,31.310078_118.400242,31.309715_118.400539,31.307214_118.397881,31.307157_118.397871,31.307431_118.397837,31.307456_118.397789,31.30757_118.397193,31.307581"
340203,利民中路343号,芜湖市,B022913RT9,31.310796,118.397385,南苑小区(利民路),"118.396754,31.31201_118.396613,31.311886_118.39676,31.311233_118.396886,31.310739_118.396949,31.310195_118.397006,31.309414_118.397952,31.309422_118.397918,31.312039_118.396754,31.31201"
340223,环城南路146号附近,芜湖市,B022914OPV,30.918239,118.334865,南苑新村,"118.333718,30.91751_118.333841,30.917428_118.334257,30.917264_118.334573,30.917161_118.334624,30.91702_118.334638,30.916852_118.335128,30.916923_118.335539,30.91697_118.33555,30.917059_118.335563,30.917227_118.335601,30.9176_118.335617,30.917904_118.336049,30.917929_118.336,30.918337_118.335904,30.91856_118.335823,30.918849_118.335754,30.919081_118.335692,30.919215_118.335675,30.91949_118.33516,30.919486_118.33499,30.919397_118.333918,30.919335_118.333892,30.919082_118.333928,30.918849_118.334051,30.918624_118.334035,30.918436_118.333792,30.91814_118.333677,30.917639_118.333718,30.91751"
340223,利民北路与环城北路交汇处向东,芜湖市,B0FFFCM7JZ,30.925645,118.335362,南陵碧桂园,"118.331969,30.92719_118.332707,30.927837_118.333396,30.928472_118.33349,30.928504_118.333586,30.928529_118.333712,30.928538_118.33383,30.928538_118.334716,30.928522_118.336891,30.928357_118.337012,30.928324_118.337084,30.928299_118.337105,30.928262_118.33714,30.928198_118.337156,30.928115_118.337175,30.926932_118.337172,30.926875_118.337167,30.926852_118.337148,30.926693_118.337138,30.926661_118.337127,30.926649_118.337105,30.926645_118.337041,30.926663_118.336759,30.926948_118.33644,30.927089_118.336038,30.927208_118.33596,30.927225_118.335912,30.927227_118.335869,30.927227_118.335839,30.92722_118.335815,30.927206_118.335805,30.927192_118.335794,30.927153_118.335797,30.927052_118.335805,30.92704_118.335821,30.927029_118.335974,30.926999_118.336223,30.926923_118.336548,30.92679_118.336738,30.926684_118.336969,30.926428_118.337135,30.926079_118.33728,30.925796_118.337285,30.925745_118.33728,30.925681_118.337242,30.925614_118.337191,30.925524_118.33713,30.925393_118.337097,30.925239_118.336923,30.924997_118.336668,30.924804_118.336365,30.924641_118.336231,30.924585_118.336151,30.924572_118.336035,30.924567_118.33519,30.924558_118.333876,30.924567_118.33379,30.924578_118.333769,30.924588_118.333761,30.924615_118.333761,30.924652_118.333793,30.925936_118.333785,30.925989_118.333777,30.926012_118.333696,30.92609_118.333458,30.926389_118.333079,30.926879_118.332709,30.927004_118.332516,30.927024_118.33246,30.927008_118.332339,30.926952_118.332314,30.926941_118.332287,30.926939_118.332263,30.92694_118.33224,30.926942_118.331969,30.92719"
340202,吉和北路14号,芜湖市,B0FFF5C2K5,31.339326,118.361502,泰华裕中新村,"118.361049,31.339996_118.36131,31.340063_118.361424,31.33979_118.361471,31.339729_118.361612,31.33956_118.361664,31.339505_118.361687,31.339477_118.361896,31.339295_118.361929,31.338827_118.36167,31.338768_118.361662,31.338794_118.361592,31.338781_118.361599,31.338746_118.361448,31.338729_118.361435,31.338738_118.361049,31.339996"
340202,"吉和北路13号,滨江世茂花园附近",芜湖市,B02290I215,31.341627,118.359884,江南新村小区,"118.359513,31.341848_118.359525,31.341667_118.359668,31.341267_118.359887,31.340685_118.360488,31.340874_118.360498,31.340919_118.360249,31.341633_118.360145,31.341906_118.35995,31.342463_118.3599,31.342496_118.359864,31.342496_118.359106,31.342348_118.359145,31.342155_118.359391,31.342195_118.359513,31.341848"
340202,新横街与新芜路交叉口东100米,芜湖市,B0FFFDT9O5,31.326904,118.364538,吉祥新村,"118.364132,31.327269_118.364344,31.326442_118.364939,31.326527_118.364735,31.327372_118.364132,31.327269"
340202,长江中路,芜湖市,B0FFFVDQ2K,31.332684,118.3609,名流印象(长江中路),"118.361157,31.334235_118.361047,31.334184_118.360925,31.334176_118.360279,31.334115_118.35992,31.333996_118.359521,31.333844_118.359358,31.3338_118.359497,31.33335_118.359578,31.333109_118.359693,31.33289_118.359946,31.332526_118.360196,31.332157_118.360559,31.331643_118.361129,31.330783_118.361288,31.330539_118.361374,31.330501_118.361789,31.330506_118.361854,31.330585_118.361814,31.331877_118.361778,31.333033_118.361772,31.334238_118.361711,31.334252_118.361157,31.334235"
340202,东郊路西185,芜湖市,B02290HX3Q,31.332858,118.386578,后家山庄,"118.387309,31.333205_118.387273,31.332249_118.386036,31.33237_118.386162,31.333088_118.38549,31.333171_118.385543,31.333461_118.387309,31.333205"
340203,"利民中路122号,25中对面",芜湖市,B022913RMM,31.313819,118.384746,向阳小区(利民路),"118.385161,31.314378_118.384972,31.313772_118.384854,31.313211_118.384361,31.31326_118.384388,31.313434_118.38452,31.31401_118.384717,31.314441_118.385161,31.314378"
340207,华山路与005县道交叉口东北50米,芜湖市,B022914FDP,31.470923,118.406568,向阳小区,"118.405563,31.473974_118.409326,31.470631_118.409573,31.470485_118.407819,31.467994_118.407312,31.468261_118.407436,31.46846_118.40643,31.469078_118.406014,31.468799_118.405464,31.469156_118.405748,31.469508_118.404238,31.47031_118.404227,31.470461_118.404453,31.471124_118.403943,31.471268_118.404614,31.472998_118.404989,31.473485_118.405563,31.473974"
340225,时代广场步行街与西大街交叉口西南150米,芜湖市,B02350OBJX,31.298119,117.907045,君临四季花都,"117.906355,31.298235_117.906367,31.2985_117.907247,31.298463_117.90725,31.298756_117.907891,31.298756_117.907897,31.298233_117.908576,31.298231_117.908578,31.298073_117.907922,31.298063_117.907859,31.298036_117.907645,31.298033_117.907635,31.297641_117.906822,31.297669_117.90649,31.297626_117.906183,31.297507_117.90583,31.29808_117.905824,31.298245_117.906355,31.298235"
340221,芜屯路西100米,芜湖市,B0FFG6RQLY,31.158716,118.580448,君和皇家花园,"118.577462,31.160376_118.581198,31.160379_118.58329,31.156892_118.583169,31.156757_118.582203,31.156768_118.581252,31.156839_118.580549,31.157105_118.579889,31.157464_118.579114,31.158104_118.577899,31.159529_118.577491,31.159814_118.577462,31.160376"
340221,曲坊路与环城南路交叉口东南50米,芜湖市,B0FFF541Q2,31.141663,118.579415,和鑫尚城国际,"118.577706,31.141451_118.579594,31.142876_118.580012,31.14278_118.580104,31.14278_118.580967,31.141618_118.580248,31.140999_118.579562,31.140746_118.578977,31.14059_118.578087,31.141082_118.577706,31.141451"
340223,籍山路与南翔路口交汇处(世纪大酒店对面),芜湖市,B02290I33E,30.910739,118.34462,和顺·阳光城市,"118.345974,30.913948_118.346197,30.913848_118.346282,30.911613_118.346295,30.91121_118.346218,30.911027_118.34769,30.908976_118.343225,30.906808_118.342951,30.907824_118.344137,30.908388_118.343471,30.909373_118.342915,30.909033_118.342688,30.909269_118.342658,30.910527_118.342749,30.91085_118.34256,30.911136_118.341877,30.911751_118.341812,30.911805_118.341881,30.911898_118.341973,30.911982_118.341985,30.912132_118.34194,30.912283_118.342014,30.912372_118.343542,30.913842_118.343724,30.913894_118.345974,30.913948"
340221,纬一路177号,芜湖市,B0FFGFPK8V,31.150391,118.597425,品樾红郡,"118.596685,31.149246_118.596695,31.148824_118.598127,31.148814_118.598215,31.149353_118.598382,31.149528_118.598422,31.151747_118.596405,31.151747_118.596287,31.151623_118.596287,31.150496_118.596574,31.150493_118.596576,31.150316_118.596704,31.150314_118.596692,31.149938_118.596727,31.14994_118.596722,31.149686_118.596616,31.149686_118.596616,31.149553_118.596703,31.149549_118.596699,31.149352_118.596576,31.149354_118.596576,31.149251_118.596685,31.149246"
340221,曲坊路与环城南路交叉口西北100米,芜湖市,B0FFG0HH9E,31.142213,118.577007,嘉业阳光城小区,"118.576443,31.142497_118.577558,31.142584_118.577587,31.142575_118.577724,31.14193_118.577563,31.141765_118.577418,31.141885_118.577203,31.141912_118.576225,31.141978_118.576198,31.142256_118.576443,31.142497"
340223,春谷中路299号,芜湖市,B0FFFL0B02,30.906085,118.324907,嘉汇城,"118.32346,30.906876_118.323444,30.905339_118.326126,30.905343_118.326448,30.905573_118.326336,30.905642_118.326529,30.905997_118.326604,30.906475_118.326089,30.90648_118.326094,30.906816_118.32346,30.906876"
340203,九华南路西,芜湖市,B0FFG8NFJV,31.236831,118.393283,四联家园,"118.391743,31.235796_118.391424,31.235855_118.392137,31.239281_118.3935,31.239056_118.393521,31.238985_118.393533,31.238675_118.393581,31.238641_118.394523,31.238511_118.3948,31.238339_118.394849,31.238223_118.395726,31.23779_118.395868,31.237643_118.395645,31.236473_118.395506,31.23642_118.395023,31.236356_118.394299,31.236445_118.393572,31.236615_118.393258,31.236218_118.393572,31.235964_118.394119,31.235748_118.393646,31.234182_118.391802,31.234513_118.391568,31.234721_118.391743,31.235796"
340207,龙山路,芜湖市,B0FFGJY4R0,31.433712,118.36393,鞍山家园,"118.363536,31.432393_118.364351,31.432782_118.364786,31.432976_118.364476,31.43339_118.364825,31.433583_118.364864,31.433656_118.364659,31.434342_118.364471,31.434635_118.364354,31.434689_118.364331,31.434823_118.364032,31.435051_118.362948,31.434024_118.363536,31.432393"
340207,褐山路与长江北路交叉口东北100米,芜湖市,B02290I27Q,31.439694,118.361189,电力三村小区,"118.360647,31.439065_118.360529,31.439665_118.360469,31.44007_118.360478,31.440129_118.360526,31.440166_118.361703,31.440422_118.361832,31.439859_118.361754,31.439839_118.361933,31.439164_118.36131,31.439111_118.360663,31.439004_118.360647,31.439065"
340207,长江北路西100米,芜湖市,B02290I27R,31.441246,118.35917,电力二村小区,"118.358361,31.441711_118.358924,31.441738_118.359082,31.441569_118.35956,31.441667_118.359879,31.441676_118.359903,31.441535_118.359919,31.441487_118.360016,31.441441_118.359967,31.441221_118.359906,31.440921_118.359562,31.44093_118.359522,31.440736_118.359106,31.440605_118.3589,31.440921_118.358704,31.4408_118.358366,31.441207_118.358452,31.441285_118.358377,31.441406_118.358361,31.441711"
340207,汽经一路与龙山路交叉口西南150米,芜湖市,B0FFFS6H1E,31.436236,118.36894,芜湖长信花园,"118.367765,31.436573_118.367969,31.436648_118.369511,31.436939_118.369945,31.436721_118.370224,31.435891_118.368382,31.435557_118.367824,31.435765_118.367765,31.436573"
340207,长江北路,芜湖市,B022913R7L,31.445889,118.365047,滨江新居,"118.365972,31.447836_118.366208,31.447527_118.366355,31.445424_118.366468,31.444049_118.365622,31.444193_118.365124,31.444292_118.363654,31.444582_118.363575,31.444635_118.36354,31.444692_118.363473,31.445677_118.363397,31.446591_118.363805,31.44663_118.364164,31.446575_118.364125,31.447129_118.364166,31.447326_118.364163,31.447494_118.364456,31.447523_118.364504,31.447454_118.365022,31.447756_118.365972,31.447836"
340207,长江北路西100米,芜湖市,B0FFIANSY3,31.450259,118.36548,褐山新苑,"118.365166,31.448279_118.365585,31.44827_118.366245,31.44813_118.366186,31.449107_118.366106,31.450496_118.365982,31.45191_118.364915,31.451889_118.364534,31.451606_118.364381,31.45107_118.364357,31.450798_118.364711,31.45062_118.364848,31.450279_118.36521,31.450077_118.365494,31.449577_118.365491,31.448993_118.364883,31.448631_118.365166,31.448279"
340202,赭山西路40-1号附近,芜湖市,B02290I26N,31.351652,118.372195,团结新村一村小区,"118.371625,31.352218_118.372774,31.352273_118.372817,31.351621_118.372833,31.351097_118.372811,31.351078_118.371726,31.351047_118.371703,31.351061_118.371695,31.351209_118.371555,31.351209_118.371522,31.351907_118.371586,31.351904_118.371625,31.352218"
340202,赭山西路36号,芜湖市,B02290I208,31.352771,118.370323,团结三村,"118.368976,31.352432_118.37037,31.35251_118.370413,31.351856_118.370445,31.351005_118.371105,31.351019_118.371175,31.35109_118.371156,31.351878_118.371156,31.352011_118.37121,31.352434_118.37125,31.352909_118.371291,31.353443_118.371301,31.353734_118.370969,31.353905_118.370741,31.353972_118.37037,31.353921_118.370049,31.353743_118.369072,31.353617_118.368914,31.353502_118.368976,31.352432"
340202,赭山公共服务中心赭山公共服务中心赭山西路,芜湖市,B0FFGN4BO7,31.349924,118.370827,团结二村(赭山西路),"118.369997,31.35072_118.370048,31.350235_118.37004,31.350097_118.36978,31.350093_118.369786,31.349866_118.369788,31.349577_118.370652,31.349651_118.370732,31.348966_118.371245,31.34903_118.371274,31.348849_118.371671,31.348906_118.371545,31.349841_118.371398,31.350775_118.369997,31.35072"
340202,赭山西路北200米,芜湖市,B022914J5O,31.352679,118.367168,团结新村四村,"118.365561,31.353105_118.365632,31.352246_118.36608,31.352032_118.366156,31.35202_118.366757,31.352026_118.366746,31.352118_118.368082,31.352196_118.36875,31.35221_118.368754,31.352854_118.368774,31.353113_118.368622,31.353102_118.368614,31.353377_118.367992,31.353309_118.367999,31.353208_118.366912,31.353156_118.366541,31.353153_118.366532,31.35324_118.366254,31.353244_118.366249,31.353302_118.365956,31.353298_118.36597,31.353122_118.365561,31.353105"
340202,团结西路,芜湖市,B022900RT7,31.351617,118.367935,风华苑,"118.366135,31.351947_118.366846,31.352002_118.368748,31.352092_118.36882,31.352037_118.368582,31.35091_118.367839,31.350903_118.36778,31.35181_118.366224,31.351762_118.366189,31.351785_118.366114,31.351801_118.366135,31.351947"
340202,赤铸山路,芜湖市,B02290HXGA,31.361881,118.3773,园丁1区,"118.375564,31.363272_118.375521,31.362892_118.375639,31.362816_118.376329,31.362764_118.3762,31.361094_118.377753,31.360469_118.378083,31.360588_118.378367,31.361137_118.378525,31.361472_118.378614,31.361809_118.378673,31.362328_118.378676,31.362688_118.377015,31.362775_118.377015,31.362839_118.376852,31.362892_118.376444,31.363135_118.37616,31.363229_118.375564,31.363272"
340202,园丁支路与赤铸山路交叉口南150米,芜湖市,B02290I0Q5,31.358733,118.378189,园丁小区二村,"118.38011,31.359183_118.380102,31.359117_118.379866,31.358864_118.379558,31.358604_118.379111,31.358354_118.378981,31.358223_118.378208,31.357868_118.377784,31.357709_118.377377,31.357586_118.376755,31.357568_118.376755,31.358233_118.376682,31.358237_118.376701,31.358789_118.377323,31.358791_118.377322,31.359195_118.377249,31.359232_118.377253,31.359346_118.377326,31.359368_118.377533,31.359388_118.377543,31.3595_118.377793,31.359556_118.378052,31.359989_118.38011,31.359183"
340221,南湖路与芜南路交叉口北150米,芜湖市,B0FFFS97PP,31.127379,118.576829,国信·学府春天,"118.575319,31.127914_118.575274,31.128207_118.578235,31.128625_118.578278,31.128593_118.57861,31.126793_118.57846,31.126559_118.575639,31.126187_118.575317,31.126293_118.575,31.127849_118.575319,31.127914"
340203,新时代商业街与中山南路交叉口,芜湖市,B02291497M,31.313222,118.365934,国贸天琴湾,"118.364523,31.311921_118.364708,31.311731_118.367042,31.311882_118.367286,31.312091_118.36679,31.314781_118.36676,31.314902_118.366666,31.314953_118.366538,31.314964_118.365374,31.314905_118.365151,31.314669_118.364523,31.311921"
340202,区九华北路东南处(香樟城市花园对面),芜湖市,B022914B23,31.350658,118.385382,圣地雅歌,"118.381906,31.349252_118.382627,31.349411_118.382824,31.348971_118.383953,31.349335_118.384463,31.349513_118.385047,31.348485_118.385535,31.348641_118.385975,31.348748_118.386124,31.348734_118.386376,31.348702_118.386441,31.348676_118.386576,31.348467_118.386777,31.34818_118.388004,31.348608_118.387429,31.350005_118.388752,31.350441_118.388682,31.350679_118.388719,31.350766_118.388811,31.350867_118.388816,31.350908_118.387915,31.3521_118.387319,31.351844_118.387444,31.351584_118.386777,31.351356_118.386617,31.3513_118.386391,31.351576_118.386134,31.351788_118.385646,31.35226_118.386284,31.352686_118.386377,31.35259_118.38689,31.353025_118.38613,31.35351_118.385429,31.3539_118.384597,31.352666_118.384099,31.352201_118.38329,31.351631_118.383077,31.351435_118.383028,31.35138_118.382963,31.351316_118.382883,31.351234_118.382733,31.351174_118.382394,31.351039_118.38227,31.350947_118.382173,31.350842_118.381912,31.350475_118.382094,31.349993_118.382051,31.349841_118.381864,31.349848_118.38179,31.34925_118.381906,31.349252"
340203,九华南路1017附近,芜湖市,B0FFG856U3,31.223091,118.401151,圣庭湖畔,"118.400222,31.224872_118.404331,31.224358_118.404438,31.224258_118.404438,31.224184_118.40417,31.223799_118.403301,31.222257_118.403212,31.222117_118.403065,31.221996_118.402958,31.221968_118.402811,31.221957_118.40266,31.221987_118.402418,31.222097_118.402217,31.222166_118.402003,31.222179_118.401842,31.222184_118.40159,31.222138_118.401359,31.222037_118.401107,31.221881_118.400903,31.221592_118.400855,31.221413_118.40078,31.221331_118.40034,31.221244_118.398618,31.22106_118.398548,31.221166_118.398559,31.221588_118.398628,31.222202_118.398811,31.223179_118.39902,31.224024_118.399076,31.224171_118.399776,31.224175_118.400093,31.224209_118.400222,31.224872"
340203,圣庭湖畔小区内,芜湖市,B0FFJP6IY7,31.221387,118.401451,圣庭湖畔幼儿园,"118.401217,31.221758_118.40107,31.221584_118.401012,31.221453_118.400972,31.221216_118.401825,31.221029_118.401905,31.221186_118.401841,31.221365_118.401824,31.221648_118.401657,31.221636_118.401217,31.221758"
